{"type": "FeatureCollection", "features": [{"type":"Feature","geometry":{"type":"Point","coordinates":[-121.90034,36.583409]},"properties":{"cartodb_id":45,"name":"Monterey","street":"800 Del Monte Center","city":"Monterey","state":"CA","zipcode":"93940","__geocoding_meta_relevance":1,"__geocoding_meta_precision":"precise","__geocoding_meta_match_types":"{street}"}},{"type":"Feature","geometry":{"type":"Point","coordinates":[-105.04444,39.91351]},"properties":{"cartodb_id":111,"name":"Bradburn","street":"4451 Main St.","city":"Westminster","state":"CO","zipcode":"80031","__geocoding_meta_relevance":1,"__geocoding_meta_precision":"precise","__geocoding_meta_match_types":"{street}"}},{"type":"Feature","geometry":{"type":"Point","coordinates":[-88.112834,41.829216]},"properties":{"cartodb_id":201,"name":"Wheaton","street":"89 Danada Square East","city":"Wheaton","state":"IL","zipcode":"60189","__geocoding_meta_relevance":0.75,"__geocoding_meta_precision":"precise","__geocoding_meta_match_types":"{street}"}},{"type":"Feature","geometry":{"type":"Point","coordinates":[-71.420142,42.568048]},"properties":{"cartodb_id":246,"name":"Westford","street":"160 Littleton Road","city":"Westford","state":"MA","zipcode":"01886","__geocoding_meta_relevance":1,"__geocoding_meta_precision":"precise","__geocoding_meta_match_types":"{street}"}},{"type":"Feature","geometry":{"type":"Point","coordinates":[-74.405742,40.753547]},"properties":{"cartodb_id":306,"name":"Rose City","street":"222 Main St","city":"Madison","state":"NJ","zipcode":"07940","__geocoding_meta_relevance":1,"__geocoding_meta_precision":"precise","__geocoding_meta_match_types":"{street}"}},{"type":"Feature","geometry":{"type":"Point","coordinates":[-83.721015,42.266917]},"properties":{"cartodb_id":274,"name":"Ann Arbor","street":"3135 Washtenaw Ave","city":"Ann Arbor","state":"MI","zipcode":"48104","__geocoding_meta_relevance":1,"__geocoding_meta_precision":"interpolated","__geocoding_meta_match_types":"{street}"}},{"type":"Feature","geometry":{"type":"Point","coordinates":[-88.150959,30.677133]},"properties":{"cartodb_id":1,"name":"Mobile","street":"3968 Airport Blvd","city":"Mobile","state":"AL","zipcode":"36608","__geocoding_meta_relevance":1,"__geocoding_meta_precision":"precise","__geocoding_meta_match_types":"{street}"}},{"type":"Feature","geometry":{"type":"Point","coordinates":[-86.17306,32.358583]},"properties":{"cartodb_id":2,"name":"Montgomery","street":"1450 Taylor Rd","city":"Montgomery","state":"AL","zipcode":"36117","__geocoding_meta_relevance":1,"__geocoding_meta_precision":"precise","__geocoding_meta_match_types":"{street}"}},{"type":"Feature","geometry":{"type":"Point","coordinates":[-86.589841,34.712337]},"properties":{"cartodb_id":3,"name":"Huntsville","street":"2501 Memorial Pkwy SW","city":"Huntsville","state":"AL","zipcode":"35801","__geocoding_meta_relevance":1,"__geocoding_meta_precision":"precise","__geocoding_meta_match_types":"{street}"}},{"type":"Feature","geometry":{"type":"Point","coordinates":[-86.75221,33.460148]},"properties":{"cartodb_id":4,"name":"Mountain Brook","street":"3100 Cahaba Village Plaza","city":"Birmingham","state":"AL","zipcode":"35243","__geocoding_meta_relevance":1,"__geocoding_meta_precision":"precise","__geocoding_meta_match_types":"{street}"}},{"type":"Feature","geometry":{"type":"Point","coordinates":[-86.802166,33.376119]},"properties":{"cartodb_id":5,"name":"Hoover","street":"3780 Riverchase Village","city":"Hoover","state":"AL","zipcode":"35244","__geocoding_meta_relevance":0.67,"__geocoding_meta_precision":"precise","__geocoding_meta_match_types":"{street}"}},{"type":"Feature","geometry":{"type":"Point","coordinates":[-111.9273,33.654145]},"properties":{"cartodb_id":6,"name":"Scottsdale","street":"7111 East Mayo Boulevard","city":"Phoenix","state":"AZ","zipcode":"85054","__geocoding_meta_relevance":1,"__geocoding_meta_precision":"precise","__geocoding_meta_match_types":"{street}"}},{"type":"Feature","geometry":{"type":"Point","coordinates":[-110.981594,32.323171]},"properties":{"cartodb_id":7,"name":"Oracle","street":"7133 N Oracle Rd","city":"Tucson","state":"AZ","zipcode":"85704","__geocoding_meta_relevance":1,"__geocoding_meta_precision":"interpolated","__geocoding_meta_match_types":"{street}"}},{"type":"Feature","geometry":{"type":"Point","coordinates":[-110.87426,32.274947]},"properties":{"cartodb_id":8,"name":"River Road","street":"5555 E. River Road","city":"Tucson","state":"AZ","zipcode":"85750-1949","__geocoding_meta_relevance":1,"__geocoding_meta_precision":"precise","__geocoding_meta_match_types":"{street}"}},{"type":"Feature","geometry":{"type":"Point","coordinates":[-110.92138,32.235697]},"properties":{"cartodb_id":9,"name":"Speedway","street":"3360 E. Speedway Blvd.","city":"Tucson","state":"AZ","zipcode":"85716","__geocoding_meta_relevance":1,"__geocoding_meta_precision":"precise","__geocoding_meta_match_types":"{street}"}},{"type":"Feature","geometry":{"type":"Point","coordinates":[-111.793,34.8658]},"properties":{"cartodb_id":10,"name":"Sedona","street":"1420 West Hwy. 89A","city":"Sedona","state":"AZ","zipcode":"86336","__geocoding_meta_relevance":0.5,"__geocoding_meta_precision":"precise","__geocoding_meta_match_types":"{point_of_interest}"}},{"type":"Feature","geometry":{"type":"Point","coordinates":[-111.97908,33.584362]},"properties":{"cartodb_id":11,"name":"Paradise Valley","street":"10810 N Tatum Blvd","city":"Phoenix","state":"AZ","zipcode":"85028","__geocoding_meta_relevance":1,"__geocoding_meta_precision":"precise","__geocoding_meta_match_types":"{street}"}},{"type":"Feature","geometry":{"type":"Point","coordinates":[-111.64135,35.191799]},"properties":{"cartodb_id":12,"name":"Flagstaff","street":"320 S. Cambridge Lane","city":"Flagstaff","state":"AZ","zipcode":"86001","__geocoding_meta_relevance":1,"__geocoding_meta_precision":"precise","__geocoding_meta_match_types":"{street}"}},{"type":"Feature","geometry":{"type":"Point","coordinates":[-112.038974,33.471816]},"properties":{"cartodb_id":13,"name":"Camelback","street":"4701 N 20th Street","city":"Phoenix","state":"AZ","zipcode":"85016","__geocoding_meta_relevance":1,"__geocoding_meta_precision":"interpolated","__geocoding_meta_match_types":"{street}"}},{"type":"Feature","geometry":{"type":"Point","coordinates":[-111.92965,33.379401]},"properties":{"cartodb_id":14,"name":"Tempe","street":"5120 S. Rural Rd","city":"Tempe","state":"AZ","zipcode":"85282","__geocoding_meta_relevance":1,"__geocoding_meta_precision":"precise","__geocoding_meta_match_types":"{street}"}},{"type":"Feature","geometry":{"type":"Point","coordinates":[-111.89269,33.318823]},"properties":{"cartodb_id":15,"name":"Chandler","street":"2955 West Ray Road","city":"Chandler","state":"AZ","zipcode":"85225","__geocoding_meta_relevance":1,"__geocoding_meta_precision":"precise","__geocoding_meta_match_types":"{street}"}},{"type":"Feature","geometry":{"type":"Point","coordinates":[-92.405651,34.750358]},"properties":{"cartodb_id":16,"name":"Bowman","street":"501 Bowman Road","city":"Little Rock","state":"AR","zipcode":"72211","__geocoding_meta_relevance":1,"__geocoding_meta_precision":"precise","__geocoding_meta_match_types":"{street}"}},{"type":"Feature","geometry":{"type":"Point","coordinates":[-94.155537,36.084542]},"properties":{"cartodb_id":17,"name":"Fayetteville","street":"3425 N. College Avenue","city":"Fayetteville","state":"AR","zipcode":"72703","__geocoding_meta_relevance":1,"__geocoding_meta_precision":"interpolated","__geocoding_meta_match_types":"{street}"}},{"type":"Feature","geometry":{"type":"Point","coordinates":[-122.30637,38.32333]},"properties":{"cartodb_id":18,"name":"Napa","street":"3682 Bel Aire Plaza","city":"Napa","state":"CA","zipcode":"94558","__geocoding_meta_relevance":1,"__geocoding_meta_precision":"precise","__geocoding_meta_match_types":"{street}"}},{"type":"Feature","geometry":{"type":"Point","coordinates":[-118.5971,34.167979]},"properties":{"cartodb_id":19,"name":"Woodland Hills","street":"21347 Ventura Blvd","city":"Woodland Hills","state":"CA","zipcode":"91364","__geocoding_meta_relevance":1,"__geocoding_meta_precision":"precise","__geocoding_meta_match_types":"{street}"}},{"type":"Feature","geometry":{"type":"Point","coordinates":[-121.978,37.7799]},"properties":{"cartodb_id":20,"name":"San Ramon","street":"100 Sunset Drive","city":"San Ramon","state":"CA","zipcode":"94583","__geocoding_meta_relevance":0.67,"__geocoding_meta_precision":"precise","__geocoding_meta_match_types":"{point_of_interest}"}},{"type":"Feature","geometry":{"type":"Point","coordinates":[-122.057965,37.974147]},"properties":{"cartodb_id":21,"name":"365 Concord","street":"2085 Diamond Blvd.","city":"Concord","state":"CA","zipcode":"94520","__geocoding_meta_relevance":1,"__geocoding_meta_precision":"interpolated","__geocoding_meta_match_types":"{street}"}},{"type":"Feature","geometry":{"type":"Point","coordinates":[-121.9456,37.2883]},"properties":{"cartodb_id":22,"name":"Campbell","street":"1690 South Bascom Ave","city":"Campbell","state":"CA","zipcode":"95008","__geocoding_meta_relevance":0.5,"__geocoding_meta_precision":"precise","__geocoding_meta_match_types":"{point_of_interest}"}},{"type":"Feature","geometry":{"type":"Point","coordinates":[-117.15806,32.748164]},"properties":{"cartodb_id":23,"name":"Hillcrest","street":"711 University Ave","city":"San Diego","state":"CA","zipcode":"92103","__geocoding_meta_relevance":1,"__geocoding_meta_precision":"precise","__geocoding_meta_match_types":"{street}"}},{"type":"Feature","geometry":{"type":"Point","coordinates":[-118.463383,34.018925]},"properties":{"cartodb_id":24,"name":"365 Santa Monica Pico","street":"2121 Cloverfield Blvd","city":"Santa Monica","state":"CA","zipcode":"90404","__geocoding_meta_relevance":1,"__geocoding_meta_precision":"interpolated","__geocoding_meta_match_types":"{street}"}},{"type":"Feature","geometry":{"type":"Point","coordinates":[-119.182841,34.242526]},"properties":{"cartodb_id":25,"name":"Oxnard","street":"650 Town Center Drive","city":"Oxnard","state":"CA","zipcode":"93036","__geocoding_meta_relevance":1,"__geocoding_meta_precision":"interpolated","__geocoding_meta_match_types":"{street}"}},{"type":"Feature","geometry":{"type":"Point","coordinates":[-122.0553,37.892696]},"properties":{"cartodb_id":26,"name":"Walnut Creek","street":"1333 Newell Ave","city":"Walnut Creek","state":"CA","zipcode":"94596","__geocoding_meta_relevance":1,"__geocoding_meta_precision":"precise","__geocoding_meta_match_types":"{street}"}},{"type":"Feature","geometry":{"type":"Point","coordinates":[-121.962298,37.237056]},"properties":{"cartodb_id":27,"name":"Los Gatos","street":"15980 Los Gatos Blvd","city":"Los Gatos","state":"CA","zipcode":"95032","__geocoding_meta_relevance":1,"__geocoding_meta_precision":"interpolated","__geocoding_meta_match_types":"{street}"}},{"type":"Feature","geometry":{"type":"Point","coordinates":[-121.96379,36.974207]},"properties":{"cartodb_id":28,"name":"Capitola","street":"1710 41st Avenue","city":"Capitola","state":"CA","zipcode":"95010","__geocoding_meta_relevance":1,"__geocoding_meta_precision":"precise","__geocoding_meta_match_types":"{street}"}},{"type":"Feature","geometry":{"type":"Point","coordinates":[-122.39914,37.780397]},"properties":{"cartodb_id":29,"name":"SoMa","street":"399 4th Street","city":"San Francisco","state":"CA","zipcode":"94107","__geocoding_meta_relevance":1,"__geocoding_meta_precision":"interpolated","__geocoding_meta_match_types":"{street}"}},{"type":"Feature","geometry":{"type":"Point","coordinates":[-117.874026,33.618845]},"properties":{"cartodb_id":30,"name":"Newport Beach","street":"415 Newport Center Drive","city":"Newport Beach","state":"CA","zipcode":"92660","__geocoding_meta_relevance":1,"__geocoding_meta_precision":"interpolated","__geocoding_meta_match_types":"{street}"}},{"type":"Feature","geometry":{"type":"Point","coordinates":[-122.56584,38.105797]},"properties":{"cartodb_id":31,"name":"Novato","street":"790 De Long Avenue","city":"Novato","state":"CA","zipcode":"94945-7005","__geocoding_meta_relevance":1,"__geocoding_meta_precision":"precise","__geocoding_meta_match_types":"{street}"}},{"type":"Feature","geometry":{"type":"Point","coordinates":[-118.55489,34.27348]},"properties":{"cartodb_id":32,"name":"Northridge (Porter Ranch)","street":"19340 Rinaldi Street","city":"Northridge","state":"CA","zipcode":"91326","__geocoding_meta_relevance":0.67,"__geocoding_meta_precision":"precise","__geocoding_meta_match_types":"{street}"}},{"type":"Feature","geometry":{"type":"Point","coordinates":[-121.8261,37.2751]},"properties":{"cartodb_id":33,"name":"San Jose - on The Alameda","street":"777 The Alameda","city":"San Jose","state":"CA","zipcode":"95126","__geocoding_meta_relevance":0.67,"__geocoding_meta_precision":"precise","__geocoding_meta_match_types":"{point_of_interest}"}},{"type":"Feature","geometry":{"type":"Point","coordinates":[-122.4577,38.2931]},"properties":{"cartodb_id":34,"name":"Sonoma","street":"Sonoma Marketplace","city":"Sonoma","state":"CA","zipcode":"95476","__geocoding_meta_relevance":0.5,"__geocoding_meta_precision":"precise","__geocoding_meta_match_types":"{point_of_interest}"}},{"type":"Feature","geometry":{"type":"Point","coordinates":[-118.25755,34.04595]},"properties":{"cartodb_id":35,"name":"Downtown Los Angeles","street":"788 S. Grand Avenue","city":"Los Angeles","state":"CA","zipcode":"90017","__geocoding_meta_relevance":1,"__geocoding_meta_precision":"precise","__geocoding_meta_match_types":"{street}"}},{"type":"Feature","geometry":{"type":"Point","coordinates":[-122.5311,37.9735]},"properties":{"cartodb_id":36,"name":"San Rafael","street":"340 Third St","city":"San Rafael","state":"CA","zipcode":"94901","__geocoding_meta_relevance":0.67,"__geocoding_meta_precision":"precise","__geocoding_meta_match_types":"{point_of_interest}"}},{"type":"Feature","geometry":{"type":"Point","coordinates":[-118.360971,34.090874]},"properties":{"cartodb_id":37,"name":"West Hollywood","street":"7871 Santa Monica Blvd","city":"West Hollywood","state":"CA","zipcode":"90046","__geocoding_meta_relevance":1,"__geocoding_meta_precision":"interpolated","__geocoding_meta_match_types":"{street}"}},{"type":"Feature","geometry":{"type":"Point","coordinates":[-117.926298,33.730713]},"properties":{"cartodb_id":38,"name":"Huntington Beach","street":"7881 Edinger Ave Suite 150","city":"Huntington Beach","state":"CA","zipcode":"92647","__geocoding_meta_relevance":0.67,"__geocoding_meta_precision":"interpolated","__geocoding_meta_match_types":"{street}"}},{"type":"Feature","geometry":{"type":"Point","coordinates":[-122.67451,38.442377]},"properties":{"cartodb_id":39,"name":"Santa Rosa","street":"1181 Yulupa Ave","city":"Santa Rosa","state":"CA","zipcode":"95405","__geocoding_meta_relevance":1,"__geocoding_meta_precision":"precise","__geocoding_meta_match_types":"{street}"}},{"type":"Feature","geometry":{"type":"Point","coordinates":[-117.74434,33.646289]},"properties":{"cartodb_id":40,"name":"Irvine","street":"8525 Irvine Center Drive","city":"Irvine","state":"CA","zipcode":"92618","__geocoding_meta_relevance":1,"__geocoding_meta_precision":"precise","__geocoding_meta_match_types":"{street}"}},{"type":"Feature","geometry":{"type":"Point","coordinates":[-117.6484,34.0975]},"properties":{"cartodb_id":41,"name":"365 Upland","street":"2153 W. Baseline Rd.","city":"Upland","state":"CA","zipcode":"91784","__geocoding_meta_relevance":0.67,"__geocoding_meta_precision":"precise","__geocoding_meta_match_types":"{point_of_interest}"}},{"type":"Feature","geometry":{"type":"Point","coordinates":[-122.42338,37.789924]},"properties":{"cartodb_id":42,"name":"Franklin","street":"1765 California St","city":"San Francisco","state":"CA","zipcode":"94109","__geocoding_meta_relevance":1,"__geocoding_meta_precision":"precise","__geocoding_meta_match_types":"{street}"}},{"type":"Feature","geometry":{"type":"Point","coordinates":[-118.41424,34.15778]},"properties":{"cartodb_id":43,"name":"Sherman Oaks","street":"12905 Riverside Drive","city":"Sherman Oaks","state":"CA","zipcode":"91423","__geocoding_meta_relevance":1,"__geocoding_meta_precision":"precise","__geocoding_meta_match_types":"{street}"}},{"type":"Feature","geometry":{"type":"Point","coordinates":[-122.11711,37.893256]},"properties":{"cartodb_id":44,"name":"Lafayette","street":"3502 Mt. Diablo Blvd.","city":"Lafayette","state":"CA","zipcode":"94549","__geocoding_meta_relevance":1,"__geocoding_meta_precision":"precise","__geocoding_meta_match_types":"{street}"}},{"type":"Feature","geometry":{"type":"Point","coordinates":[-122.82409,38.403801]},"properties":{"cartodb_id":46,"name":"Sebastopol","street":"6910 McKinley St","city":"Sebastopol","state":"CA","zipcode":"95472","__geocoding_meta_relevance":1,"__geocoding_meta_precision":"precise","__geocoding_meta_match_types":"{street}"}},{"type":"Feature","geometry":{"type":"Point","coordinates":[-120.68715,35.250777]},"properties":{"cartodb_id":47,"name":"San Luis Obispo","street":"1531 Froom Ranch Way","city":"San Luis Obispo","state":"CA","zipcode":"93405","__geocoding_meta_relevance":1,"__geocoding_meta_precision":"precise","__geocoding_meta_match_types":"{street}"}},{"type":"Feature","geometry":{"type":"Point","coordinates":[-118.252939,34.127325]},"properties":{"cartodb_id":48,"name":"Glendale","street":"331 North Glendale Ave","city":"Glendale","state":"CA","zipcode":"91206","__geocoding_meta_relevance":1,"__geocoding_meta_precision":"interpolated","__geocoding_meta_match_types":"{street}"}},{"type":"Feature","geometry":{"type":"Point","coordinates":[-118.494568,34.032701]},"properties":{"cartodb_id":49,"name":"Montana Avenue","street":"1425 Montana Ave.","city":"Santa Monica","state":"CA","zipcode":"90403","__geocoding_meta_relevance":1,"__geocoding_meta_precision":"interpolated","__geocoding_meta_match_types":"{street}"}},{"type":"Feature","geometry":{"type":"Point","coordinates":[-122.53626,37.896067]},"properties":{"cartodb_id":50,"name":"Mill Valley","street":"414 Miller Ave","city":"Mill Valley","state":"CA","zipcode":"94941","__geocoding_meta_relevance":1,"__geocoding_meta_precision":"precise","__geocoding_meta_match_types":"{street}"}},{"type":"Feature","geometry":{"type":"Point","coordinates":[-121.877153,37.250559]},"properties":{"cartodb_id":51,"name":"Blossom Hill","street":"1146 Blossom Hill Road","city":"San Jose","state":"CA","zipcode":"95118","__geocoding_meta_relevance":1,"__geocoding_meta_precision":"interpolated","__geocoding_meta_match_types":"{street}"}},{"type":"Feature","geometry":{"type":"Point","coordinates":[-117.78815,33.711582]},"properties":{"cartodb_id":52,"name":"Coddingtown","street":"390 Coddingtown Mall","city":"Santa Rosa","state":"CA","zipcode":"95401","__geocoding_meta_relevance":0.4,"__geocoding_meta_precision":"precise","__geocoding_meta_match_types":"{street}"}},{"type":"Feature","geometry":{"type":"Point","coordinates":[-118.396046,33.878766]},"properties":{"cartodb_id":53,"name":"Redondo Beach","street":"405 North Pacific Coast Hwy","city":"Redondo Beach","state":"CA","zipcode":"90277","__geocoding_meta_relevance":0.67,"__geocoding_meta_precision":"interpolated","__geocoding_meta_match_types":"{street}"}},{"type":"Feature","geometry":{"type":"Point","coordinates":[-118.25902,34.10299]},"properties":{"cartodb_id":54,"name":"365 Silver Lake","street":"2520 Glendale Blvd","city":"Los Angeles","state":"CA","zipcode":"90039","__geocoding_meta_relevance":1,"__geocoding_meta_precision":"precise","__geocoding_meta_match_types":"{street}"}},{"type":"Feature","geometry":{"type":"Point","coordinates":[-119.697,34.4098]},"properties":{"cartodb_id":55,"name":"Santa Barbara","street":"3761 State Street","city":"Santa Barbara","state":"CA","zipcode":"93105","__geocoding_meta_relevance":0.67,"__geocoding_meta_precision":"precise","__geocoding_meta_match_types":"{point_of_interest}"}},{"type":"Feature","geometry":{"type":"Point","coordinates":[-121.88984,37.705718]},"properties":{"cartodb_id":56,"name":"Dublin CA","street":"5200 Dublin Blvd.","city":"Dublin","state":"CA","zipcode":"94568","__geocoding_meta_relevance":1,"__geocoding_meta_precision":"precise","__geocoding_meta_match_types":"{street}"}},{"type":"Feature","geometry":{"type":"Point","coordinates":[-118.33119,33.792291]},"properties":{"cartodb_id":57,"name":"Torrance","street":"2655 Pacific Coast Hwy","city":"Torrance","state":"CA","zipcode":"90505","__geocoding_meta_relevance":1,"__geocoding_meta_precision":"precise","__geocoding_meta_match_types":"{street}"}},{"type":"Feature","geometry":{"type":"Point","coordinates":[-122.52606,37.90254]},"properties":{"cartodb_id":58,"name":"Blithedale","street":"731 East Blithedale","city":"Mill Valley","state":"CA","zipcode":"94941","__geocoding_meta_relevance":0.93,"__geocoding_meta_precision":"precise","__geocoding_meta_match_types":"{street}"}},{"type":"Feature","geometry":{"type":"Point","coordinates":[-118.44706,34.061146]},"properties":{"cartodb_id":59,"name":"Westwood","street":"1050 S. Gayley Ave","city":"Los Angeles","state":"CA","zipcode":"90024","__geocoding_meta_relevance":1,"__geocoding_meta_precision":"precise","__geocoding_meta_match_types":"{street}"}},{"type":"Feature","geometry":{"type":"Point","coordinates":[-122.01536,37.92598]},"properties":{"cartodb_id":60,"name":"Ygnacio Valley Road","street":"2941 Ygnacio Valley Rd.","city":"Walnut Creek","state":"CA","zipcode":"94598","__geocoding_meta_relevance":1,"__geocoding_meta_precision":"precise","__geocoding_meta_match_types":"{street}"}},{"type":"Feature","geometry":{"type":"Point","coordinates":[-121.36383,38.596332]},"properties":{"cartodb_id":61,"name":"Sacramento","street":"4315 Arden Way","city":"Sacramento","state":"CA","zipcode":"95864","__geocoding_meta_relevance":1,"__geocoding_meta_precision":"precise","__geocoding_meta_match_types":"{street}"}},{"type":"Feature","geometry":{"type":"Point","coordinates":[-118.36061,34.07127]},"properties":{"cartodb_id":62,"name":"3rd & Fairfax","street":"6350 West 3rd Street","city":"Los Angeles","state":"CA","zipcode":"90036","__geocoding_meta_relevance":1,"__geocoding_meta_precision":"precise","__geocoding_meta_match_types":"{street}"}},{"type":"Feature","geometry":{"type":"Point","coordinates":[-118.46926,34.001833]},"properties":{"cartodb_id":63,"name":"Venice","street":"225 Lincoln Blvd.","city":"Venice","state":"CA","zipcode":"90291","__geocoding_meta_relevance":1,"__geocoding_meta_precision":"precise","__geocoding_meta_match_types":"{street}"}},{"type":"Feature","geometry":{"type":"Point","coordinates":[-122.67451,38.442377]},"properties":{"cartodb_id":64,"name":"Santa Rosa","street":"1181 Yulupa Ave","city":"Santa Rosa","state":"CA","zipcode":"95405","__geocoding_meta_relevance":1,"__geocoding_meta_precision":"precise","__geocoding_meta_match_types":"{street}"}},{"type":"Feature","geometry":{"type":"Point","coordinates":[-122.42712,37.768614]},"properties":{"cartodb_id":65,"name":"2001 Market Street","street":"2001 Market Street","city":"San Francisco","state":"CA","zipcode":"94114","__geocoding_meta_relevance":1,"__geocoding_meta_precision":"precise","__geocoding_meta_match_types":"{street}"}},{"type":"Feature","geometry":{"type":"Point","coordinates":[-122.4028,37.764582]},"properties":{"cartodb_id":66,"name":"Potrero Hill","street":"450 Rhode Island St","city":"San Francisco","state":"CA","zipcode":"94107","__geocoding_meta_relevance":1,"__geocoding_meta_precision":"precise","__geocoding_meta_match_types":"{street}"}},{"type":"Feature","geometry":{"type":"Point","coordinates":[-122.29766,37.880648]},"properties":{"cartodb_id":67,"name":"Gilman","street":"1025 Gilman Street","city":"Berkeley","state":"CA","zipcode":"94710","__geocoding_meta_relevance":1,"__geocoding_meta_precision":"precise","__geocoding_meta_match_types":"{street}"}},{"type":"Feature","geometry":{"type":"Point","coordinates":[-122.3091,37.5446]},"properties":{"cartodb_id":68,"name":"San Mateo","street":"1010 Park Place","city":"San Mateo","state":"CA","zipcode":"94403","__geocoding_meta_relevance":0.67,"__geocoding_meta_precision":"precise","__geocoding_meta_match_types":"{point_of_interest}"}},{"type":"Feature","geometry":{"type":"Point","coordinates":[-122.2606,37.812936]},"properties":{"cartodb_id":69,"name":"Oakland","street":"230 Bay Place","city":"Oakland","state":"CA","zipcode":"94612","__geocoding_meta_relevance":1,"__geocoding_meta_precision":"precise","__geocoding_meta_match_types":"{street}"}},{"type":"Feature","geometry":{"type":"Point","coordinates":[-118.55597,34.412472]},"properties":{"cartodb_id":70,"name":"Valencia","street":"24130 Valencia Blvd","city":"Santa Clarita","state":"CA","zipcode":"91355","__geocoding_meta_relevance":0.92,"__geocoding_meta_precision":"precise","__geocoding_meta_match_types":"{street}"}},{"type":"Feature","geometry":{"type":"Point","coordinates":[-118.10869,33.754426]},"properties":{"cartodb_id":71,"name":"Long Beach","street":"6550 E. Pacific Coast Highway","city":"Long Beach","state":"CA","zipcode":"90803","__geocoding_meta_relevance":1,"__geocoding_meta_precision":"precise","__geocoding_meta_match_types":"{street}"}},{"type":"Feature","geometry":{"type":"Point","coordinates":[-122.1099,37.399162]},"properties":{"cartodb_id":72,"name":"Los Altos","street":"4800 El Camino Real","city":"Los Altos","state":"CA","zipcode":"94022","__geocoding_meta_relevance":1,"__geocoding_meta_precision":"precise","__geocoding_meta_match_types":"{street}"}},{"type":"Feature","geometry":{"type":"Point","coordinates":[-122.4577,38.2931]},"properties":{"cartodb_id":73,"name":"Sonoma","street":"Sonoma Marketplace","city":"Sonoma","state":"CA","zipcode":"95476","__geocoding_meta_relevance":0.5,"__geocoding_meta_precision":"precise","__geocoding_meta_match_types":"{point_of_interest}"}},{"type":"Feature","geometry":{"type":"Point","coordinates":[-118.46727,34.05351]},"properties":{"cartodb_id":74,"name":"Brentwood","street":"11737 San Vicente Blvd","city":"Los Angeles","state":"CA","zipcode":"90049","__geocoding_meta_relevance":1,"__geocoding_meta_precision":"precise","__geocoding_meta_match_types":"{street}"}},{"type":"Feature","geometry":{"type":"Point","coordinates":[-118.41709,33.97756]},"properties":{"cartodb_id":75,"name":"Playa Vista","street":"12746 West Jefferson Blvd Suite #1100","city":"Playa Vista","state":"CA","zipcode":"90094","__geocoding_meta_relevance":0.75,"__geocoding_meta_precision":"precise","__geocoding_meta_match_types":"{street}"}},{"type":"Feature","geometry":{"type":"Point","coordinates":[-117.23199,32.868798]},"properties":{"cartodb_id":76,"name":"La Jolla","street":"8825 Villa La Jolla Dr","city":"La Jolla","state":"CA","zipcode":"92037-9994","__geocoding_meta_relevance":1,"__geocoding_meta_precision":"precise","__geocoding_meta_match_types":"{street}"}},{"type":"Feature","geometry":{"type":"Point","coordinates":[-122.26028,37.855306]},"properties":{"cartodb_id":77,"name":"Berkeley","street":"3000 Telegraph Ave","city":"Berkeley","state":"CA","zipcode":"94705","__geocoding_meta_relevance":1,"__geocoding_meta_precision":"precise","__geocoding_meta_match_types":"{street}"}},{"type":"Feature","geometry":{"type":"Point","coordinates":[-118.46686,34.15175]},"properties":{"cartodb_id":78,"name":"Sherman Oaks West","street":"4520 N. Sepulveda Blvd","city":"Sherman Oaks","state":"CA","zipcode":"91403","__geocoding_meta_relevance":1,"__geocoding_meta_precision":"precise","__geocoding_meta_match_types":"{street}"}},{"type":"Feature","geometry":{"type":"Point","coordinates":[-117.78357,33.543851]},"properties":{"cartodb_id":79,"name":"Laguna Beach","street":"283 Broadway St.","city":"Laguna Beach","state":"CA","zipcode":"92651","__geocoding_meta_relevance":1,"__geocoding_meta_precision":"precise","__geocoding_meta_match_types":"{street}"}},{"type":"Feature","geometry":{"type":"Point","coordinates":[-122.45461,37.723771]},"properties":{"cartodb_id":80,"name":"Ocean","street":"1150 Ocean Ave","city":"San Francisco","state":"CA","zipcode":"94112","__geocoding_meta_relevance":1,"__geocoding_meta_precision":"precise","__geocoding_meta_match_types":"{street}"}},{"type":"Feature","geometry":{"type":"Point","coordinates":[-118.41424,34.15778]},"properties":{"cartodb_id":81,"name":"Sherman Oaks","street":"12905 Riverside Drive","city":"Sherman Oaks","state":"CA","zipcode":"91423","__geocoding_meta_relevance":1,"__geocoding_meta_precision":"precise","__geocoding_meta_match_types":"{street}"}},{"type":"Feature","geometry":{"type":"Point","coordinates":[-122.11711,37.893256]},"properties":{"cartodb_id":82,"name":"Lafayette","street":"3502 Mt. Diablo Blvd.","city":"Lafayette","state":"CA","zipcode":"94549","__geocoding_meta_relevance":1,"__geocoding_meta_precision":"precise","__geocoding_meta_match_types":"{street}"}},{"type":"Feature","geometry":{"type":"Point","coordinates":[-118.46926,34.001833]},"properties":{"cartodb_id":83,"name":"Venice","street":"225 Lincoln Blvd.","city":"Venice","state":"CA","zipcode":"90291","__geocoding_meta_relevance":1,"__geocoding_meta_precision":"precise","__geocoding_meta_match_types":"{street}"}},{"type":"Feature","geometry":{"type":"Point","coordinates":[-117.71257,33.554386]},"properties":{"cartodb_id":84,"name":"Laguna Niguel","street":"23932 Aliso Creek Road","city":"Laguna Niguel","state":"CA","zipcode":"92677","__geocoding_meta_relevance":1,"__geocoding_meta_precision":"precise","__geocoding_meta_match_types":"{street}"}},{"type":"Feature","geometry":{"type":"Point","coordinates":[-122.43085,37.751866]},"properties":{"cartodb_id":85,"name":"Noe Valley","street":"3950 24th Street","city":"San Francisco","state":"CA","zipcode":"94114","__geocoding_meta_relevance":1,"__geocoding_meta_precision":"precise","__geocoding_meta_match_types":"{street}"}},{"type":"Feature","geometry":{"type":"Point","coordinates":[-122.057965,37.974147]},"properties":{"cartodb_id":86,"name":"365 Concord","street":"2085 Diamond Blvd.","city":"Concord","state":"CA","zipcode":"94520","__geocoding_meta_relevance":1,"__geocoding_meta_precision":"interpolated","__geocoding_meta_match_types":"{street}"}},{"type":"Feature","geometry":{"type":"Point","coordinates":[-117.24556,32.981207]},"properties":{"cartodb_id":87,"name":"Del Mar","street":"2600 Via De La Valle, Suite 100","city":"Del Mar","state":"CA","zipcode":"92014","__geocoding_meta_relevance":1,"__geocoding_meta_precision":"interpolated","__geocoding_meta_match_types":"{street}"}},{"type":"Feature","geometry":{"type":"Point","coordinates":[-118.87365,34.187881]},"properties":{"cartodb_id":88,"name":"Thousand Oaks","street":"740 North Moorpark Rd","city":"Thousand Oaks","state":"CA","zipcode":"91360","__geocoding_meta_relevance":1,"__geocoding_meta_precision":"precise","__geocoding_meta_match_types":"{street}"}},{"type":"Feature","geometry":{"type":"Point","coordinates":[-122.67451,38.442377]},"properties":{"cartodb_id":89,"name":"Santa Rosa","street":"1181 Yulupa Ave","city":"Santa Rosa","state":"CA","zipcode":"95405","__geocoding_meta_relevance":1,"__geocoding_meta_precision":"precise","__geocoding_meta_match_types":"{street}"}},{"type":"Feature","geometry":{"type":"Point","coordinates":[-118.142641,33.829094]},"properties":{"cartodb_id":90,"name":"365 Long Beach","street":"3881 Lakewood Blvd.","city":"Long Beach","state":"CA","zipcode":"90808","__geocoding_meta_relevance":1,"__geocoding_meta_precision":"interpolated","__geocoding_meta_match_types":"{street}"}},{"type":"Feature","geometry":{"type":"Point","coordinates":[-122.5311,37.9735]},"properties":{"cartodb_id":91,"name":"San Rafael","street":"340 Third St","city":"San Rafael","state":"CA","zipcode":"94901","__geocoding_meta_relevance":0.67,"__geocoding_meta_precision":"precise","__geocoding_meta_match_types":"{point_of_interest}"}},{"type":"Feature","geometry":{"type":"Point","coordinates":[-118.360971,34.090874]},"properties":{"cartodb_id":92,"name":"West Hollywood","street":"7871 Santa Monica Blvd","city":"West Hollywood","state":"CA","zipcode":"90046","__geocoding_meta_relevance":1,"__geocoding_meta_precision":"interpolated","__geocoding_meta_match_types":"{street}"}},{"type":"Feature","geometry":{"type":"Point","coordinates":[-122.39914,37.780397]},"properties":{"cartodb_id":93,"name":"SoMa","street":"399 4th Street","city":"San Francisco","state":"CA","zipcode":"94107","__geocoding_meta_relevance":1,"__geocoding_meta_precision":"interpolated","__geocoding_meta_match_types":"{street}"}},{"type":"Feature","geometry":{"type":"Point","coordinates":[-118.5971,34.167979]},"properties":{"cartodb_id":94,"name":"Woodland Hills","street":"21347 Ventura Blvd","city":"Woodland Hills","state":"CA","zipcode":"91364","__geocoding_meta_relevance":1,"__geocoding_meta_precision":"precise","__geocoding_meta_match_types":"{street}"}},{"type":"Feature","geometry":{"type":"Point","coordinates":[-121.978,37.7799]},"properties":{"cartodb_id":95,"name":"San Ramon","street":"100 Sunset Drive","city":"San Ramon","state":"CA","zipcode":"94583","__geocoding_meta_relevance":0.67,"__geocoding_meta_precision":"precise","__geocoding_meta_match_types":"{point_of_interest}"}},{"type":"Feature","geometry":{"type":"Point","coordinates":[-121.9456,37.2883]},"properties":{"cartodb_id":96,"name":"Campbell","street":"1690 South Bascom Ave","city":"Campbell","state":"CA","zipcode":"95008","__geocoding_meta_relevance":0.5,"__geocoding_meta_precision":"precise","__geocoding_meta_match_types":"{point_of_interest}"}},{"type":"Feature","geometry":{"type":"Point","coordinates":[-122.0553,37.892696]},"properties":{"cartodb_id":97,"name":"Walnut Creek","street":"1333 Newell Ave","city":"Walnut Creek","state":"CA","zipcode":"94596","__geocoding_meta_relevance":1,"__geocoding_meta_precision":"precise","__geocoding_meta_match_types":"{street}"}},{"type":"Feature","geometry":{"type":"Point","coordinates":[-118.55489,34.27348]},"properties":{"cartodb_id":98,"name":"Northridge (Porter Ranch)","street":"19340 Rinaldi Street","city":"Northridge","state":"CA","zipcode":"91326","__geocoding_meta_relevance":0.67,"__geocoding_meta_precision":"precise","__geocoding_meta_match_types":"{street}"}},{"type":"Feature","geometry":{"type":"Point","coordinates":[-118.463383,34.018925]},"properties":{"cartodb_id":99,"name":"365 Santa Monica Pico","street":"2121 Cloverfield Blvd","city":"Santa Monica","state":"CA","zipcode":"90404","__geocoding_meta_relevance":1,"__geocoding_meta_precision":"interpolated","__geocoding_meta_match_types":"{street}"}},{"type":"Feature","geometry":{"type":"Point","coordinates":[-117.874026,33.618845]},"properties":{"cartodb_id":100,"name":"Newport Beach","street":"415 Newport Center Drive","city":"Newport Beach","state":"CA","zipcode":"92660","__geocoding_meta_relevance":1,"__geocoding_meta_precision":"interpolated","__geocoding_meta_match_types":"{street}"}},{"type":"Feature","geometry":{"type":"Point","coordinates":[-122.56584,38.105797]},"properties":{"cartodb_id":101,"name":"Novato","street":"790 De Long Avenue","city":"Novato","state":"CA","zipcode":"94945-7005","__geocoding_meta_relevance":1,"__geocoding_meta_precision":"precise","__geocoding_meta_match_types":"{street}"}},{"type":"Feature","geometry":{"type":"Point","coordinates":[-121.96379,36.974207]},"properties":{"cartodb_id":102,"name":"Capitola","street":"1710 41st Avenue","city":"Capitola","state":"CA","zipcode":"95010","__geocoding_meta_relevance":1,"__geocoding_meta_precision":"precise","__geocoding_meta_match_types":"{street}"}},{"type":"Feature","geometry":{"type":"Point","coordinates":[-122.30637,38.32333]},"properties":{"cartodb_id":103,"name":"Napa","street":"3682 Bel Aire Plaza","city":"Napa","state":"CA","zipcode":"94558","__geocoding_meta_relevance":1,"__geocoding_meta_precision":"precise","__geocoding_meta_match_types":"{street}"}},{"type":"Feature","geometry":{"type":"Point","coordinates":[-117.15806,32.748164]},"properties":{"cartodb_id":104,"name":"Hillcrest","street":"711 University Ave","city":"San Diego","state":"CA","zipcode":"92103","__geocoding_meta_relevance":1,"__geocoding_meta_precision":"precise","__geocoding_meta_match_types":"{street}"}},{"type":"Feature","geometry":{"type":"Point","coordinates":[-119.182841,34.242526]},"properties":{"cartodb_id":105,"name":"Oxnard","street":"650 Town Center Drive","city":"Oxnard","state":"CA","zipcode":"93036","__geocoding_meta_relevance":1,"__geocoding_meta_precision":"interpolated","__geocoding_meta_match_types":"{street}"}},{"type":"Feature","geometry":{"type":"Point","coordinates":[-105.00136,39.754477]},"properties":{"cartodb_id":106,"name":"Union Station","street":"1701 Wewatta Street","city":"Denver","state":"CO","zipcode":"80202","__geocoding_meta_relevance":1,"__geocoding_meta_precision":"precise","__geocoding_meta_match_types":"{street}"}},{"type":"Feature","geometry":{"type":"Point","coordinates":[-105.12907,40.148022]},"properties":{"cartodb_id":107,"name":"Longmont","street":"1250 South Hover Road","city":"Longmont","state":"CO","zipcode":"80501","__geocoding_meta_relevance":1,"__geocoding_meta_precision":"precise","__geocoding_meta_match_types":"{street}"}},{"type":"Feature","geometry":{"type":"Point","coordinates":[-105.09221,39.623419]},"properties":{"cartodb_id":108,"name":"Governor\\xe2\\x80\\x99s Ranch","street":"5155 S. Wadsworth Blvd.","city":"Littleton","state":"CO","zipcode":"80123-2217","__geocoding_meta_relevance":1,"__geocoding_meta_precision":"precise","__geocoding_meta_match_types":"{street}"}},{"type":"Feature","geometry":{"type":"Point","coordinates":[-105.205862,39.718718]},"properties":{"cartodb_id":109,"name":"Colfax","street":"14357 W. Colfax Ave.","city":"Golden","state":"CO","zipcode":"80401","__geocoding_meta_relevance":1,"__geocoding_meta_precision":"interpolated","__geocoding_meta_match_types":"{street}"}},{"type":"Feature","geometry":{"type":"Point","coordinates":[-104.96214,39.592144]},"properties":{"cartodb_id":110,"name":"SouthGlenn","street":"6853 South York Street","city":"Centennial","state":"CO","zipcode":"80122","__geocoding_meta_relevance":1,"__geocoding_meta_precision":"precise","__geocoding_meta_match_types":"{street}"}},{"type":"Feature","geometry":{"type":"Point","coordinates":[-104.949932,39.756251]},"properties":{"cartodb_id":112,"name":"Cherry Creek","street":"2375 E. 1st Ave","city":"Denver","state":"CO","zipcode":"80206","__geocoding_meta_relevance":1,"__geocoding_meta_precision":"interpolated","__geocoding_meta_match_types":"{street}"}},{"type":"Feature","geometry":{"type":"Point","coordinates":[-104.94225,39.54562]},"properties":{"cartodb_id":113,"name":"Highlands Ranch","street":"9366 S. Colorado Blvd.","city":"Highlands Ranch","state":"CO","zipcode":"80126","__geocoding_meta_relevance":1,"__geocoding_meta_precision":"precise","__geocoding_meta_match_types":"{street}"}},{"type":"Feature","geometry":{"type":"Point","coordinates":[-105.28072,40.025904]},"properties":{"cartodb_id":114,"name":"Ideal Market","street":"1275 Alpine Ave.","city":"Boulder","state":"CO","zipcode":"80304","__geocoding_meta_relevance":1,"__geocoding_meta_precision":"precise","__geocoding_meta_match_types":"{street}"}},{"type":"Feature","geometry":{"type":"Point","coordinates":[-106.10052,39.588475]},"properties":{"cartodb_id":115,"name":"Frisco","street":"261 Lusher Court","city":"Frisco","state":"CO","zipcode":"80443","__geocoding_meta_relevance":1,"__geocoding_meta_precision":"precise","__geocoding_meta_match_types":"{street}"}},{"type":"Feature","geometry":{"type":"Point","coordinates":[-105.25609,40.023745]},"properties":{"cartodb_id":116,"name":"Pearl","street":"2905 Pearl St","city":"Boulder","state":"CO","zipcode":"80301","__geocoding_meta_relevance":1,"__geocoding_meta_precision":"precise","__geocoding_meta_match_types":"{street}"}},{"type":"Feature","geometry":{"type":"Point","coordinates":[-104.787325,38.915112]},"properties":{"cartodb_id":117,"name":"Pikes Peak","street":"7635 North Academy Blvd","city":"Colorado Springs","state":"CO","zipcode":"80920-3207","__geocoding_meta_relevance":1,"__geocoding_meta_precision":"interpolated","__geocoding_meta_match_types":"{street}"}},{"type":"Feature","geometry":{"type":"Point","coordinates":[-105.081637,39.724028]},"properties":{"cartodb_id":118,"name":"Belmar","street":"444 S.Wadsworth Blvd","city":"Lakewood","state":"CO","zipcode":"80226","__geocoding_meta_relevance":1,"__geocoding_meta_precision":"interpolated","__geocoding_meta_match_types":"{street}"}},{"type":"Feature","geometry":{"type":"Point","coordinates":[-104.93949,39.700906]},"properties":{"cartodb_id":119,"name":"Colorado Boulevard","street":"870 S. Colorado Blvd.","city":"Glendale","state":"CO","zipcode":"80246","__geocoding_meta_relevance":1,"__geocoding_meta_precision":"precise","__geocoding_meta_match_types":"{street}"}},{"type":"Feature","geometry":{"type":"Point","coordinates":[-104.90273,39.651615]},"properties":{"cartodb_id":120,"name":"Tamarac","street":"7400 E. Hampden Ave","city":"Denver","state":"CO","zipcode":"80231","__geocoding_meta_relevance":1,"__geocoding_meta_precision":"precise","__geocoding_meta_match_types":"{street}"}},{"type":"Feature","geometry":{"type":"Point","coordinates":[-105.0785,40.559189]},"properties":{"cartodb_id":121,"name":"Fort Collins","street":"2201 S College Ave","city":"Fort Collins","state":"CO","zipcode":"80525","__geocoding_meta_relevance":1,"__geocoding_meta_precision":"precise","__geocoding_meta_match_types":"{street}"}},{"type":"Feature","geometry":{"type":"Point","coordinates":[-72.836544,44.33925]},"properties":{"cartodb_id":122,"name":"Superior","street":"303 Marshall Rd.","city":"Superior","state":"CO","zipcode":"80027","__geocoding_meta_relevance":0.67,"__geocoding_meta_precision":"interpolated","__geocoding_meta_match_types":"{street}"}},{"type":"Feature","geometry":{"type":"Point","coordinates":[-104.9653,39.7348]},"properties":{"cartodb_id":123,"name":"Washington Park","street":"1111 S. Washington Street","city":"Denver","state":"CO","zipcode":"80210","__geocoding_meta_relevance":0.67,"__geocoding_meta_precision":"precise","__geocoding_meta_match_types":"{point_of_interest}"}},{"type":"Feature","geometry":{"type":"Point","coordinates":[-107.08269,39.386999]},"properties":{"cartodb_id":124,"name":"Roaring Fork","street":"340 Reed Street","city":"Basalt","state":"CO","zipcode":"81621","__geocoding_meta_relevance":1,"__geocoding_meta_precision":"precise","__geocoding_meta_match_types":"{street}"}},{"type":"Feature","geometry":{"type":"Point","coordinates":[-73.476887,41.073255]},"properties":{"cartodb_id":125,"name":"Darien","street":"150 Ledge Road","city":"Darien","state":"CT","zipcode":"06820","__geocoding_meta_relevance":1,"__geocoding_meta_precision":"precise","__geocoding_meta_match_types":"{street}"}},{"type":"Feature","geometry":{"type":"Point","coordinates":[-73.240111,41.158488]},"properties":{"cartodb_id":126,"name":"Fairfield","street":"350 Grasmere Avenue","city":"Fairfield","state":"CT","zipcode":"06824","__geocoding_meta_relevance":1,"__geocoding_meta_precision":"precise","__geocoding_meta_match_types":"{street}"}},{"type":"Feature","geometry":{"type":"Point","coordinates":[-72.406925,41.286941]},"properties":{"cartodb_id":127,"name":"Milford","street":"1686 Boston Post Road","city":"Milford","state":"CT","zipcode":"06460","__geocoding_meta_relevance":0.67,"__geocoding_meta_precision":"interpolated","__geocoding_meta_match_types":"{street}"}},{"type":"Feature","geometry":{"type":"Point","coordinates":[-73.629354,41.028182]},"properties":{"cartodb_id":128,"name":"Greenwich","street":"90 E. Putnam Ave.","city":"Greenwich","state":"CT","zipcode":"06830","__geocoding_meta_relevance":1,"__geocoding_meta_precision":"interpolated","__geocoding_meta_match_types":"{street}"}},{"type":"Feature","geometry":{"type":"Point","coordinates":[-73.475784,41.378148]},"properties":{"cartodb_id":129,"name":"Danbury","street":"5C Sugar Hollow Road","city":"Danbury","state":"CT","zipcode":"06810","__geocoding_meta_relevance":1,"__geocoding_meta_precision":"precise","__geocoding_meta_match_types":"{street}"}},{"type":"Feature","geometry":{"type":"Point","coordinates":[-72.738884,41.761123]},"properties":{"cartodb_id":130,"name":"West Hartford","street":"50 Raymond Rd","city":"West Hartford","state":"CT","zipcode":"06107","__geocoding_meta_relevance":1,"__geocoding_meta_precision":"precise","__geocoding_meta_match_types":"{street}"}},{"type":"Feature","geometry":{"type":"Point","coordinates":[-72.746769,41.78432]},"properties":{"cartodb_id":131,"name":"Bishops Corner","street":"340 N. Main St.","city":"West Hartford","state":"CT","zipcode":"06117","__geocoding_meta_relevance":1,"__geocoding_meta_precision":"interpolated","__geocoding_meta_match_types":"{street}"}},{"type":"Feature","geometry":{"type":"Point","coordinates":[-73.476887,41.073255]},"properties":{"cartodb_id":132,"name":"Darien","street":"150 Ledge Road","city":"Darien","state":"CT","zipcode":"06820","__geocoding_meta_relevance":1,"__geocoding_meta_precision":"precise","__geocoding_meta_match_types":"{street}"}},{"type":"Feature","geometry":{"type":"Point","coordinates":[-73.240111,41.158488]},"properties":{"cartodb_id":133,"name":"Fairfield","street":"350 Grasmere Avenue","city":"Fairfield","state":"CT","zipcode":"06824","__geocoding_meta_relevance":1,"__geocoding_meta_precision":"precise","__geocoding_meta_match_types":"{street}"}},{"type":"Feature","geometry":{"type":"Point","coordinates":[-77.033568,38.909499]},"properties":{"cartodb_id":134,"name":"P Street","street":"1440 P Street NW","city":"Washington","state":"DC","zipcode":"20005","__geocoding_meta_relevance":1,"__geocoding_meta_precision":"precise","__geocoding_meta_match_types":"{street}"}},{"type":"Feature","geometry":{"type":"Point","coordinates":[-76.998147,38.900405]},"properties":{"cartodb_id":135,"name":"H Street","street":"600 H Street, NE","city":"Washington","state":"DC","zipcode":"20002","__geocoding_meta_relevance":1,"__geocoding_meta_precision":"precise","__geocoding_meta_match_types":"{street}"}},{"type":"Feature","geometry":{"type":"Point","coordinates":[-77.079215,38.949109]},"properties":{"cartodb_id":136,"name":"Tenleytown","street":"4530 40th St NW Tenley Circle","city":"Washington","state":"DC","zipcode":"20016","__geocoding_meta_relevance":0.75,"__geocoding_meta_precision":"precise","__geocoding_meta_match_types":"{street}"}},{"type":"Feature","geometry":{"type":"Point","coordinates":[-77.04907,38.900919]},"properties":{"cartodb_id":137,"name":"Foggy Bottom","street":"2201 I Street NW","city":"Washington","state":"DC","zipcode":"20037","__geocoding_meta_relevance":1,"__geocoding_meta_precision":"precise","__geocoding_meta_match_types":"{street}"}},{"type":"Feature","geometry":{"type":"Point","coordinates":[-81.624851,30.185394]},"properties":{"cartodb_id":138,"name":"Jacksonville","street":"10601 San Jose Blvd","city":"Jacksonville","state":"FL","zipcode":"32257","__geocoding_meta_relevance":1,"__geocoding_meta_precision":"precise","__geocoding_meta_match_types":"{street}"}},{"type":"Feature","geometry":{"type":"Point","coordinates":[-80.089309,26.720695]},"properties":{"cartodb_id":139,"name":"West Palm Beach","street":"1845 Palm Beach Lakes Boulevard","city":"West Palm Beach","state":"FL","zipcode":"33401","__geocoding_meta_relevance":1,"__geocoding_meta_precision":"precise","__geocoding_meta_match_types":"{street}"}},{"type":"Feature","geometry":{"type":"Point","coordinates":[-80.113359,26.366058]},"properties":{"cartodb_id":140,"name":"Boca Raton","street":"1400 Glades Rd","city":"Boca Raton","state":"FL","zipcode":"33431","__geocoding_meta_relevance":1,"__geocoding_meta_precision":"precise","__geocoding_meta_match_types":"{street}"}},{"type":"Feature","geometry":{"type":"Point","coordinates":[-80.165293,25.887979]},"properties":{"cartodb_id":141,"name":"North Miami","street":"12150 Biscayne Blvd","city":"North Miami","state":"FL","zipcode":"33181","__geocoding_meta_relevance":0.93,"__geocoding_meta_precision":"precise","__geocoding_meta_match_types":"{street}"}},{"type":"Feature","geometry":{"type":"Point","coordinates":[-80.34,26.01]},"properties":{"cartodb_id":142,"name":"Pembroke Pines","street":"14956 Pines Blvd","city":"Pembroke Pines","state":"FL","zipcode":"33027","__geocoding_meta_relevance":0.67,"__geocoding_meta_precision":"precise","__geocoding_meta_match_types":"{point_of_interest}"}},{"type":"Feature","geometry":{"type":"Point","coordinates":[-80.141132,25.780965]},"properties":{"cartodb_id":143,"name":"South Beach","street":"1020 Alton Road","city":"Miami Beach","state":"FL","zipcode":"33139","__geocoding_meta_relevance":0.83,"__geocoding_meta_precision":"precise","__geocoding_meta_match_types":"{street}"}},{"type":"Feature","geometry":{"type":"Point","coordinates":[-80.094792,26.849684]},"properties":{"cartodb_id":144,"name":"Palm Beach Gardens","street":"11701 Lake Victoria Gardens Ave","city":"Palm Beach Gardens","state":"FL","zipcode":"33410","__geocoding_meta_relevance":1,"__geocoding_meta_precision":"precise","__geocoding_meta_match_types":"{street}"}},{"type":"Feature","geometry":{"type":"Point","coordinates":[-81.476582,28.449366]},"properties":{"cartodb_id":145,"name":"Orlando","street":"8003 Turkey Lake Road","city":"Orlando","state":"FL","zipcode":"32819","__geocoding_meta_relevance":1,"__geocoding_meta_precision":"precise","__geocoding_meta_match_types":"{street}"}},{"type":"Feature","geometry":{"type":"Point","coordinates":[-80.117673,26.153384]},"properties":{"cartodb_id":146,"name":"Fort Lauderdale","street":"2000 N Federal Hwy","city":"Fort Lauderdale","state":"FL","zipcode":"33305","__geocoding_meta_relevance":1,"__geocoding_meta_precision":"precise","__geocoding_meta_match_types":"{street}"}},{"type":"Feature","geometry":{"type":"Point","coordinates":[-82.542135,27.337691]},"properties":{"cartodb_id":147,"name":"Sarasota","street":"1451 1st Street","city":"Sarasota","state":"FL","zipcode":"34236","__geocoding_meta_relevance":1,"__geocoding_meta_precision":"precise","__geocoding_meta_match_types":"{street}"}},{"type":"Feature","geometry":{"type":"Point","coordinates":[-82.5307,27.3364]},"properties":{"cartodb_id":148,"name":"University Station","street":"5298 University Parkway","city":"Sarasota","state":"FL","zipcode":"34243","__geocoding_meta_relevance":0.67,"__geocoding_meta_precision":"precise","__geocoding_meta_match_types":"{point_of_interest}"}},{"type":"Feature","geometry":{"type":"Point","coordinates":[-81.476582,28.449366]},"properties":{"cartodb_id":149,"name":"Orlando","street":"8003 Turkey Lake Road","city":"Orlando","state":"FL","zipcode":"32819","__geocoding_meta_relevance":1,"__geocoding_meta_precision":"precise","__geocoding_meta_match_types":"{street}"}},{"type":"Feature","geometry":{"type":"Point","coordinates":[-80.117673,26.153384]},"properties":{"cartodb_id":150,"name":"Fort Lauderdale","street":"2000 N Federal Hwy","city":"Fort Lauderdale","state":"FL","zipcode":"33305","__geocoding_meta_relevance":1,"__geocoding_meta_precision":"precise","__geocoding_meta_match_types":"{street}"}},{"type":"Feature","geometry":{"type":"Point","coordinates":[-81.800072,26.254878]},"properties":{"cartodb_id":151,"name":"Naples","street":"9101 Strada Place","city":"Naples","state":"FL","zipcode":"34108","__geocoding_meta_relevance":1,"__geocoding_meta_precision":"precise","__geocoding_meta_match_types":"{street}"}},{"type":"Feature","geometry":{"type":"Point","coordinates":[-80.094792,26.849684]},"properties":{"cartodb_id":152,"name":"Palm Beach Gardens","street":"11701 Lake Victoria Gardens Ave","city":"Palm Beach Gardens","state":"FL","zipcode":"33410","__geocoding_meta_relevance":1,"__geocoding_meta_precision":"precise","__geocoding_meta_match_types":"{street}"}},{"type":"Feature","geometry":{"type":"Point","coordinates":[-80.248179,26.008219]},"properties":{"cartodb_id":153,"name":"Davie","street":"1903 S. University Drive","city":"Davie","state":"FL","zipcode":"33324","__geocoding_meta_relevance":1,"__geocoding_meta_precision":"interpolated","__geocoding_meta_match_types":"{street}"}},{"type":"Feature","geometry":{"type":"Point","coordinates":[-81.380794,28.664715]},"properties":{"cartodb_id":154,"name":"Altamonte Springs","street":"305 East Altamonte Drive","city":"Altamonte Springs","state":"FL","zipcode":"32701","__geocoding_meta_relevance":1,"__geocoding_meta_precision":"precise","__geocoding_meta_match_types":"{street}"}},{"type":"Feature","geometry":{"type":"Point","coordinates":[-80.106998,26.211285]},"properties":{"cartodb_id":155,"name":"Pompano Beach","street":"2411 N Federal Highway","city":"Pompano Beach","state":"FL","zipcode":"33062","__geocoding_meta_relevance":1,"__geocoding_meta_precision":"interpolated","__geocoding_meta_match_types":"{street}"}},{"type":"Feature","geometry":{"type":"Point","coordinates":[-80.261206,25.813476]},"properties":{"cartodb_id":156,"name":"Downtown Miami","street":"299 SE 3rd Ave","city":"Miami","state":"FL","zipcode":"33131","__geocoding_meta_relevance":0.83,"__geocoding_meta_precision":"precise","__geocoding_meta_match_types":"{street}"}},{"type":"Feature","geometry":{"type":"Point","coordinates":[-81.624851,30.185394]},"properties":{"cartodb_id":157,"name":"Jacksonville","street":"10601 San Jose Blvd","city":"Jacksonville","state":"FL","zipcode":"32257","__geocoding_meta_relevance":1,"__geocoding_meta_precision":"precise","__geocoding_meta_match_types":"{street}"}},{"type":"Feature","geometry":{"type":"Point","coordinates":[-82.375913,29.625478]},"properties":{"cartodb_id":158,"name":"Gainesville","street":"3490 SW Archer Rd","city":"Gainesville","state":"FL","zipcode":"32608","__geocoding_meta_relevance":1,"__geocoding_meta_precision":"precise","__geocoding_meta_match_types":"{street}"}},{"type":"Feature","geometry":{"type":"Point","coordinates":[-80.2595,25.74758]},"properties":{"cartodb_id":159,"name":"Coral Gables","street":"6701 Red Road","city":"Coral Gables","state":"FL","zipcode":"33143","__geocoding_meta_relevance":0.67,"__geocoding_meta_precision":"precise","__geocoding_meta_match_types":"{point_of_interest}"}},{"type":"Feature","geometry":{"type":"Point","coordinates":[-80.206289,26.641288]},"properties":{"cartodb_id":160,"name":"Wellington","street":"2635 State Road 7","city":"Wellington","state":"FL","zipcode":"33414-9372","__geocoding_meta_relevance":1,"__geocoding_meta_precision":"precise","__geocoding_meta_match_types":"{street}"}},{"type":"Feature","geometry":{"type":"Point","coordinates":[-86.419896,30.390219]},"properties":{"cartodb_id":161,"name":"Destin","street":"4402 Legendary Drive","city":"Destin","state":"FL","zipcode":"32541","__geocoding_meta_relevance":1,"__geocoding_meta_precision":"precise","__geocoding_meta_match_types":"{street}"}},{"type":"Feature","geometry":{"type":"Point","coordinates":[-80.089309,26.720695]},"properties":{"cartodb_id":162,"name":"West Palm Beach","street":"1845 Palm Beach Lakes Boulevard","city":"West Palm Beach","state":"FL","zipcode":"33401","__geocoding_meta_relevance":1,"__geocoding_meta_precision":"precise","__geocoding_meta_match_types":"{street}"}},{"type":"Feature","geometry":{"type":"Point","coordinates":[-80.113359,26.366058]},"properties":{"cartodb_id":163,"name":"Boca Raton","street":"1400 Glades Rd","city":"Boca Raton","state":"FL","zipcode":"33431","__geocoding_meta_relevance":1,"__geocoding_meta_precision":"precise","__geocoding_meta_match_types":"{street}"}},{"type":"Feature","geometry":{"type":"Point","coordinates":[-80.165293,25.887979]},"properties":{"cartodb_id":164,"name":"North Miami","street":"12150 Biscayne Blvd","city":"North Miami","state":"FL","zipcode":"33181","__geocoding_meta_relevance":0.93,"__geocoding_meta_precision":"precise","__geocoding_meta_match_types":"{street}"}},{"type":"Feature","geometry":{"type":"Point","coordinates":[-80.34,26.01]},"properties":{"cartodb_id":165,"name":"Pembroke Pines","street":"14956 Pines Blvd","city":"Pembroke Pines","state":"FL","zipcode":"33027","__geocoding_meta_relevance":0.67,"__geocoding_meta_precision":"precise","__geocoding_meta_match_types":"{point_of_interest}"}},{"type":"Feature","geometry":{"type":"Point","coordinates":[-84.312912,33.884984]},"properties":{"cartodb_id":166,"name":"Chamblee","street":"5001 Peachtree Boulevard","city":"Chamblee","state":"GA","zipcode":"30341","__geocoding_meta_relevance":0.67,"__geocoding_meta_precision":"interpolated","__geocoding_meta_match_types":"{street}"}},{"type":"Feature","geometry":{"type":"Point","coordinates":[-84.184358,34.014422]},"properties":{"cartodb_id":167,"name":"Johns Creek","street":"5945 State Bridge Rd","city":"Johns Creek","state":"GA","zipcode":"30097","__geocoding_meta_relevance":1,"__geocoding_meta_precision":"precise","__geocoding_meta_match_types":"{street}"}},{"type":"Feature","geometry":{"type":"Point","coordinates":[-84.58988,33.998198]},"properties":{"cartodb_id":168,"name":"Kennesaw","street":"1300 Ernest Barrett Parkway","city":"Kennesaw","state":"GA","zipcode":"30144","__geocoding_meta_relevance":1,"__geocoding_meta_precision":"precise","__geocoding_meta_match_types":"{street}"}},{"type":"Feature","geometry":{"type":"Point","coordinates":[-84.278449,34.069437]},"properties":{"cartodb_id":169,"name":"Avalon","street":"2800 Old Milton Pkwy","city":"Alpharetta","state":"GA","zipcode":"30009","__geocoding_meta_relevance":1,"__geocoding_meta_precision":"precise","__geocoding_meta_match_types":"{street}"}},{"type":"Feature","geometry":{"type":"Point","coordinates":[-84.184358,34.014422]},"properties":{"cartodb_id":170,"name":"Johns Creek","street":"5945 State Bridge Rd","city":"Johns Creek","state":"GA","zipcode":"30097","__geocoding_meta_relevance":1,"__geocoding_meta_precision":"precise","__geocoding_meta_match_types":"{street}"}},{"type":"Feature","geometry":{"type":"Point","coordinates":[-81.071818,32.043335]},"properties":{"cartodb_id":171,"name":"Savannah","street":"1815 E. Victory Drive","city":"Savannah","state":"GA","zipcode":"31404","__geocoding_meta_relevance":1,"__geocoding_meta_precision":"precise","__geocoding_meta_match_types":"{street}"}},{"type":"Feature","geometry":{"type":"Point","coordinates":[-84.378972,33.916318]},"properties":{"cartodb_id":172,"name":"Sandy Springs","street":"5930 Roswell Rd","city":"Atlanta","state":"GA","zipcode":"30328","__geocoding_meta_relevance":1,"__geocoding_meta_precision":"precise","__geocoding_meta_match_types":"{street}"}},{"type":"Feature","geometry":{"type":"Point","coordinates":[-84.366802,33.773837]},"properties":{"cartodb_id":173,"name":"Ponce de Leon","street":"650 Ponce de Leon Ave NE","city":"Atlanta","state":"GA","zipcode":"30308","__geocoding_meta_relevance":1,"__geocoding_meta_precision":"precise","__geocoding_meta_match_types":"{street}"}},{"type":"Feature","geometry":{"type":"Point","coordinates":[-84.381933,33.840647]},"properties":{"cartodb_id":174,"name":"Buckhead","street":"77 West Paces Ferry Rd NW","city":"Atlanta","state":"GA","zipcode":"30305","__geocoding_meta_relevance":1,"__geocoding_meta_precision":"precise","__geocoding_meta_match_types":"{street}"}},{"type":"Feature","geometry":{"type":"Point","coordinates":[-84.312912,33.884984]},"properties":{"cartodb_id":175,"name":"Chamblee","street":"5001 Peachtree Boulevard","city":"Chamblee","state":"GA","zipcode":"30341","__geocoding_meta_relevance":0.67,"__geocoding_meta_precision":"interpolated","__geocoding_meta_match_types":"{street}"}},{"type":"Feature","geometry":{"type":"Point","coordinates":[-156.47,20.8947]},"properties":{"cartodb_id":176,"name":"Maui","street":"70 East Kaahumanu Avenue #B","city":"Kahului","state":"HI","zipcode":"96732","__geocoding_meta_relevance":0.33,"__geocoding_meta_precision":"precise","__geocoding_meta_match_types":"{point_of_interest}"}},{"type":"Feature","geometry":{"type":"Point","coordinates":[-157.74278,21.393409]},"properties":{"cartodb_id":177,"name":"Kailua","street":"629 Kailua Road, Suite 100","city":"Kailua","state":"HI","zipcode":"96734","__geocoding_meta_relevance":1,"__geocoding_meta_precision":"precise","__geocoding_meta_match_types":"{street}"}},{"type":"Feature","geometry":{"type":"Point","coordinates":[-157.7864,21.274592]},"properties":{"cartodb_id":178,"name":"Honolulu","street":"b\"4211 Wai'alae Avenue\"","city":"Honolulu","state":"HI","zipcode":"96816","__geocoding_meta_relevance":0.75,"__geocoding_meta_precision":"precise","__geocoding_meta_match_types":"{street}"}},{"type":"Feature","geometry":{"type":"Point","coordinates":[-157.85124,21.294998]},"properties":{"cartodb_id":179,"name":"Queen","street":"388 Kamakee Street","city":"Honolulu","state":"HI","zipcode":"96814","__geocoding_meta_relevance":1,"__geocoding_meta_precision":"interpolated","__geocoding_meta_match_types":"{street}"}},{"type":"Feature","geometry":{"type":"Point","coordinates":[-116.19446,43.607984]},"properties":{"cartodb_id":180,"name":"Boise","street":"401 S. Broadway","city":"Boise","state":"ID","zipcode":"83702","__geocoding_meta_relevance":0.93,"__geocoding_meta_precision":"precise","__geocoding_meta_match_types":"{street}"}},{"type":"Feature","geometry":{"type":"Point","coordinates":[-87.9359,41.7698]},"properties":{"cartodb_id":181,"name":"Willowbrook","street":"6300 S. Robert Kingery Highway","city":"Willowbrook","state":"IL","zipcode":"60527","__geocoding_meta_relevance":0.4,"__geocoding_meta_precision":"precise","__geocoding_meta_match_types":"{point_of_interest}"}},{"type":"Feature","geometry":{"type":"Point","coordinates":[-87.824896,42.010782]},"properties":{"cartodb_id":182,"name":"Park Ridge","street":"225 W. Touhy Ave","city":"Park Ridge","state":"IL","zipcode":"60068","__geocoding_meta_relevance":1,"__geocoding_meta_precision":"precise","__geocoding_meta_match_types":"{street}"}},{"type":"Feature","geometry":{"type":"Point","coordinates":[-87.800739,42.10656]},"properties":{"cartodb_id":183,"name":"Northbrook","street":"840 Willow Road","city":"Northbrook","state":"IL","zipcode":"60062","__geocoding_meta_relevance":1,"__geocoding_meta_precision":"precise","__geocoding_meta_match_types":"{street}"}},{"type":"Feature","geometry":{"type":"Point","coordinates":[-87.649908,41.948553]},"properties":{"cartodb_id":184,"name":"Halsted and Waveland","street":"3640 N Halsted St","city":"Chicago","state":"IL","zipcode":"60613","__geocoding_meta_relevance":1,"__geocoding_meta_precision":"precise","__geocoding_meta_match_types":"{street}"}},{"type":"Feature","geometry":{"type":"Point","coordinates":[-87.848057,42.16626]},"properties":{"cartodb_id":185,"name":"Deerfield","street":"760 Waukegan Rd","city":"Deerfield","state":"IL","zipcode":"60015","__geocoding_meta_relevance":1,"__geocoding_meta_precision":"precise","__geocoding_meta_match_types":"{street}"}},{"type":"Feature","geometry":{"type":"Point","coordinates":[-88.044051,42.159542]},"properties":{"cartodb_id":186,"name":"Kildeer","street":"20281 N Rand Road","city":"Kildeer","state":"IL","zipcode":"60074","__geocoding_meta_relevance":1,"__geocoding_meta_precision":"precise","__geocoding_meta_match_types":"{street}"}},{"type":"Feature","geometry":{"type":"Point","coordinates":[-88.200372,41.748727]},"properties":{"cartodb_id":187,"name":"Naperville","street":"2607 W. 75th Street","city":"Naperville","state":"IL","zipcode":"60540","__geocoding_meta_relevance":1,"__geocoding_meta_precision":"precise","__geocoding_meta_match_types":"{street}"}},{"type":"Feature","geometry":{"type":"Point","coordinates":[-87.937603,41.812742]},"properties":{"cartodb_id":188,"name":"Hinsdale","street":"500 E. Ogden Ave.","city":"Hinsdale","state":"IL","zipcode":"60521","__geocoding_meta_relevance":1,"__geocoding_meta_precision":"interpolated","__geocoding_meta_match_types":"{street}"}},{"type":"Feature","geometry":{"type":"Point","coordinates":[-87.8539,41.6303]},"properties":{"cartodb_id":189,"name":"Orland Park","street":"15260 S. LaGrange Road","city":"Orland Park","state":"IL","zipcode":"60462","__geocoding_meta_relevance":0.5,"__geocoding_meta_precision":"precise","__geocoding_meta_match_types":"{point_of_interest}"}},{"type":"Feature","geometry":{"type":"Point","coordinates":[-88.200372,41.748727]},"properties":{"cartodb_id":190,"name":"Naperville","street":"2607 W. 75th Street","city":"Naperville","state":"IL","zipcode":"60540","__geocoding_meta_relevance":1,"__geocoding_meta_precision":"precise","__geocoding_meta_match_types":"{street}"}},{"type":"Feature","geometry":{"type":"Point","coordinates":[-87.937603,41.812742]},"properties":{"cartodb_id":191,"name":"Hinsdale","street":"500 E. Ogden Ave.","city":"Hinsdale","state":"IL","zipcode":"60521","__geocoding_meta_relevance":1,"__geocoding_meta_precision":"interpolated","__geocoding_meta_match_types":"{street}"}},{"type":"Feature","geometry":{"type":"Point","coordinates":[-87.65344,41.909331]},"properties":{"cartodb_id":192,"name":"Lincoln Park","street":"1550 N. Kingsbury Street","city":"Chicago","state":"IL","zipcode":"60642","__geocoding_meta_relevance":1,"__geocoding_meta_precision":"precise","__geocoding_meta_match_types":"{street}"}},{"type":"Feature","geometry":{"type":"Point","coordinates":[-87.62648,41.895485]},"properties":{"cartodb_id":193,"name":"Gold Coast","street":"30 West Huron St","city":"Chicago","state":"IL","zipcode":"60654","__geocoding_meta_relevance":1,"__geocoding_meta_precision":"precise","__geocoding_meta_match_types":"{street}"}},{"type":"Feature","geometry":{"type":"Point","coordinates":[-87.679408,42.047554]},"properties":{"cartodb_id":194,"name":"Downtown Evanston","street":"1640 Chicago Ave","city":"Evanston","state":"IL","zipcode":"60201","__geocoding_meta_relevance":1,"__geocoding_meta_precision":"precise","__geocoding_meta_match_types":"{street}"}},{"type":"Feature","geometry":{"type":"Point","coordinates":[-88.036858,42.042369]},"properties":{"cartodb_id":195,"name":"Schaumburg","street":"750 N. Martingale Rd.","city":"Schaumburg","state":"IL","zipcode":"60173","__geocoding_meta_relevance":1,"__geocoding_meta_precision":"precise","__geocoding_meta_match_types":"{street}"}},{"type":"Feature","geometry":{"type":"Point","coordinates":[-87.651772,41.925397]},"properties":{"cartodb_id":196,"name":"DePaul","street":"959 West Fullerton Avenue","city":"Chicago","state":"IL","zipcode":"60614","__geocoding_meta_relevance":1,"__geocoding_meta_precision":"interpolated","__geocoding_meta_match_types":"{street}"}},{"type":"Feature","geometry":{"type":"Point","coordinates":[-87.645262,41.782147]},"properties":{"cartodb_id":197,"name":"Englewood","street":"832 W 63rd Street","city":"Chicago","state":"IL","zipcode":"60621","__geocoding_meta_relevance":1,"__geocoding_meta_precision":"interpolated","__geocoding_meta_match_types":"{street}"}},{"type":"Feature","geometry":{"type":"Point","coordinates":[-88.044051,42.159542]},"properties":{"cartodb_id":198,"name":"Kildeer","street":"20281 N Rand Road","city":"Kildeer","state":"IL","zipcode":"60074","__geocoding_meta_relevance":1,"__geocoding_meta_precision":"precise","__geocoding_meta_match_types":"{street}"}},{"type":"Feature","geometry":{"type":"Point","coordinates":[-87.621325,41.891374]},"properties":{"cartodb_id":199,"name":"Streeterville","street":"255 E. Grand Ave","city":"Chicago","state":"IL","zipcode":"60611","__geocoding_meta_relevance":1,"__geocoding_meta_precision":"precise","__geocoding_meta_match_types":"{street}"}},{"type":"Feature","geometry":{"type":"Point","coordinates":[-87.9403,41.8995]},"properties":{"cartodb_id":200,"name":"Elmhurst","street":"215 S. IL Rte 83","city":"Elmhurst","state":"IL","zipcode":"60126","__geocoding_meta_relevance":0.67,"__geocoding_meta_precision":"precise","__geocoding_meta_match_types":"{point_of_interest}"}},{"type":"Feature","geometry":{"type":"Point","coordinates":[-87.830611,41.887999]},"properties":{"cartodb_id":202,"name":"River Forest","street":"7245 Lake St","city":"River Forest","state":"IL","zipcode":"60305","__geocoding_meta_relevance":1,"__geocoding_meta_precision":"interpolated","__geocoding_meta_match_types":"{street}"}},{"type":"Feature","geometry":{"type":"Point","coordinates":[-87.646848,41.880859]},"properties":{"cartodb_id":203,"name":"West Loop","street":"1 N. Halsted Street","city":"Chicago","state":"IL","zipcode":"60661","__geocoding_meta_relevance":1,"__geocoding_meta_precision":"precise","__geocoding_meta_match_types":"{street}"}},{"type":"Feature","geometry":{"type":"Point","coordinates":[-87.748844,41.990563]},"properties":{"cartodb_id":204,"name":"Sauganash","street":"6020 N Cicero Ave","city":"Chicago","state":"IL","zipcode":"60646","__geocoding_meta_relevance":1,"__geocoding_meta_precision":"precise","__geocoding_meta_match_types":"{street}"}},{"type":"Feature","geometry":{"type":"Point","coordinates":[-87.668257,41.939995]},"properties":{"cartodb_id":205,"name":"Lakeview","street":"3201 N. Ashland Avenue","city":"Chicago","state":"IL","zipcode":"60657","__geocoding_meta_relevance":1,"__geocoding_meta_precision":"precise","__geocoding_meta_match_types":"{street}"}},{"type":"Feature","geometry":{"type":"Point","coordinates":[-87.659688,41.991131]},"properties":{"cartodb_id":206,"name":"Chicago Edgewater","street":"6009 North Broadway","city":"Chicago","state":"IL","zipcode":"60660","__geocoding_meta_relevance":1,"__geocoding_meta_precision":"precise","__geocoding_meta_match_types":"{street}"}},{"type":"Feature","geometry":{"type":"Point","coordinates":[-87.471245,41.516514]},"properties":{"cartodb_id":207,"name":"Schererville","street":"199 US HWY 41","city":"Schererville","state":"IN","zipcode":"46375","__geocoding_meta_relevance":1,"__geocoding_meta_precision":"interpolated","__geocoding_meta_match_types":"{street}"}},{"type":"Feature","geometry":{"type":"Point","coordinates":[-86.186184,41.698897]},"properties":{"cartodb_id":208,"name":"Mishawaka","street":"4230 Grape Road","city":"Mishawaka","state":"IN","zipcode":"46545-1007","__geocoding_meta_relevance":1,"__geocoding_meta_precision":"precise","__geocoding_meta_match_types":"{street}"}},{"type":"Feature","geometry":{"type":"Point","coordinates":[-86.151798,39.768697]},"properties":{"cartodb_id":209,"name":"Downtown Indianapolis","street":"320 E. Market St.","city":"Indianapolis","state":"IN","zipcode":"46204","__geocoding_meta_relevance":1,"__geocoding_meta_precision":"precise","__geocoding_meta_match_types":"{street}"}},{"type":"Feature","geometry":{"type":"Point","coordinates":[-86.138648,39.915945]},"properties":{"cartodb_id":210,"name":"Eighty-Sixth St.","street":"1300 E. 86th St.","city":"Indianapolis","state":"IN","zipcode":"46240","__geocoding_meta_relevance":1,"__geocoding_meta_precision":"precise","__geocoding_meta_match_types":"{street}"}},{"type":"Feature","geometry":{"type":"Point","coordinates":[-86.151798,39.768697]},"properties":{"cartodb_id":211,"name":"Downtown Indianapolis","street":"320 E. Market St.","city":"Indianapolis","state":"IN","zipcode":"46204","__geocoding_meta_relevance":1,"__geocoding_meta_precision":"precise","__geocoding_meta_match_types":"{street}"}},{"type":"Feature","geometry":{"type":"Point","coordinates":[-93.759459,41.598895]},"properties":{"cartodb_id":212,"name":"West Des Moines","street":"4100 University Ave Suite #260","city":"West Des Moines","state":"IA","zipcode":"50266","__geocoding_meta_relevance":0.6,"__geocoding_meta_precision":"precise","__geocoding_meta_match_types":"{street}"}},{"type":"Feature","geometry":{"type":"Point","coordinates":[-94.756518,38.911516]},"properties":{"cartodb_id":213,"name":"Olathe","street":"14615 W. 119th Street","city":"Olathe","state":"KS","zipcode":"66062","__geocoding_meta_relevance":1,"__geocoding_meta_precision":"precise","__geocoding_meta_match_types":"{street}"}},{"type":"Feature","geometry":{"type":"Point","coordinates":[-94.662158,38.911647]},"properties":{"cartodb_id":214,"name":"119th St","street":"6621 West 119th Street","city":"Overland Park","state":"KS","zipcode":"66209-2020","__geocoding_meta_relevance":0.92,"__geocoding_meta_precision":"precise","__geocoding_meta_match_types":"{street}"}},{"type":"Feature","geometry":{"type":"Point","coordinates":[-97.225678,37.8459]},"properties":{"cartodb_id":215,"name":"Wichita","street":"1423 N. Webb Rd.","city":"Wichita","state":"KS","zipcode":"67206","__geocoding_meta_relevance":1,"__geocoding_meta_precision":"interpolated","__geocoding_meta_match_types":"{street}"}},{"type":"Feature","geometry":{"type":"Point","coordinates":[-84.497,38.0464]},"properties":{"cartodb_id":216,"name":"Lexington","street":"4059 Finn Way","city":"Lexington","state":"KY","zipcode":"40503","__geocoding_meta_relevance":0.67,"__geocoding_meta_precision":"precise","__geocoding_meta_match_types":"{point_of_interest}"}},{"type":"Feature","geometry":{"type":"Point","coordinates":[-85.625928,38.248915]},"properties":{"cartodb_id":217,"name":"Louisville","street":"4944 Shelbyville Road","city":"Louisville","state":"KY","zipcode":"40207","__geocoding_meta_relevance":1,"__geocoding_meta_precision":"precise","__geocoding_meta_match_types":"{street}"}},{"type":"Feature","geometry":{"type":"Point","coordinates":[-90.0657,30.3582]},"properties":{"cartodb_id":218,"name":"Mandeville","street":"3450 Highway 190","city":"Mandeville","state":"LA","zipcode":"70471","__geocoding_meta_relevance":0.67,"__geocoding_meta_precision":"precise","__geocoding_meta_match_types":"{point_of_interest}"}},{"type":"Feature","geometry":{"type":"Point","coordinates":[-93.726427,32.443426]},"properties":{"cartodb_id":219,"name":"Shreveport","street":"1380 E 70th St","city":"Shreveport","state":"LA","zipcode":"71105","__geocoding_meta_relevance":1,"__geocoding_meta_precision":"interpolated","__geocoding_meta_match_types":"{street}"}},{"type":"Feature","geometry":{"type":"Point","coordinates":[-91.111458,30.432219]},"properties":{"cartodb_id":220,"name":"Baton Rouge","street":"7529 Corporate Blvd","city":"Baton Rouge","state":"LA","zipcode":"70809","__geocoding_meta_relevance":1,"__geocoding_meta_precision":"precise","__geocoding_meta_match_types":"{street}"}},{"type":"Feature","geometry":{"type":"Point","coordinates":[-90.084743,29.967192]},"properties":{"cartodb_id":221,"name":"Broad Street","street":"300 N Broad St","city":"New Orleans","state":"LA","zipcode":"70119","__geocoding_meta_relevance":1,"__geocoding_meta_precision":"precise","__geocoding_meta_match_types":"{street}"}},{"type":"Feature","geometry":{"type":"Point","coordinates":[-90.117642,29.920829]},"properties":{"cartodb_id":222,"name":"Arabella Station","street":"5600 Magazine Street","city":"New Orleans","state":"LA","zipcode":"70115","__geocoding_meta_relevance":1,"__geocoding_meta_precision":"precise","__geocoding_meta_match_types":"{street}"}},{"type":"Feature","geometry":{"type":"Point","coordinates":[-92.051831,30.161029]},"properties":{"cartodb_id":223,"name":"Ambassador Caffery","street":"4247 Ambassador Caffery Parkway","city":"Lafayette","state":"LA","zipcode":"70508","__geocoding_meta_relevance":1,"__geocoding_meta_precision":"precise","__geocoding_meta_match_types":"{street}"}},{"type":"Feature","geometry":{"type":"Point","coordinates":[-90.158895,30.002015]},"properties":{"cartodb_id":224,"name":"Veterans","street":"3420 Veterans Memorial Blvd","city":"Metairie","state":"LA","zipcode":"70002","__geocoding_meta_relevance":1,"__geocoding_meta_precision":"precise","__geocoding_meta_match_types":"{street}"}},{"type":"Feature","geometry":{"type":"Point","coordinates":[-70.2549,43.661]},"properties":{"cartodb_id":225,"name":"Portland - Maine","street":"2 Somerset St","city":"Portland","state":"ME","zipcode":"04101","__geocoding_meta_relevance":0.67,"__geocoding_meta_precision":"precise","__geocoding_meta_match_types":"{point_of_interest}"}},{"type":"Feature","geometry":{"type":"Point","coordinates":[-76.540048,38.981971]},"properties":{"cartodb_id":226,"name":"Annapolis","street":"200 Harker PIace","city":"Annapolis","state":"MD","zipcode":"21401","__geocoding_meta_relevance":0.99,"__geocoding_meta_precision":"precise","__geocoding_meta_match_types":"{street}"}},{"type":"Feature","geometry":{"type":"Point","coordinates":[-77.104259,38.966418]},"properties":{"cartodb_id":227,"name":"Bethesda","street":"5269 River Rd","city":"Bethesda","state":"MD","zipcode":"20816","__geocoding_meta_relevance":1,"__geocoding_meta_precision":"precise","__geocoding_meta_match_types":"{street}"}},{"type":"Feature","geometry":{"type":"Point","coordinates":[-77.112715,39.042979]},"properties":{"cartodb_id":228,"name":"Rockville","street":"11355 Woodglen Drive","city":"Rockville","state":"MD","zipcode":"20852","__geocoding_meta_relevance":1,"__geocoding_meta_precision":"precise","__geocoding_meta_match_types":"{street}"}},{"type":"Feature","geometry":{"type":"Point","coordinates":[-76.9297,38.9615]},"properties":{"cartodb_id":229,"name":"Riverdale Park","street":"6621-B Baltimore Ave","city":"Riverdale Park","state":"MD","zipcode":"20737","__geocoding_meta_relevance":0.5,"__geocoding_meta_precision":"precise","__geocoding_meta_match_types":"{point_of_interest}"}},{"type":"Feature","geometry":{"type":"Point","coordinates":[-76.856496,39.214418]},"properties":{"cartodb_id":230,"name":"Columbia - Maryland","street":"10275 Little Patuxent Pkwy","city":"Columbia","state":"MD","zipcode":"21044","__geocoding_meta_relevance":1,"__geocoding_meta_precision":"precise","__geocoding_meta_match_types":"{street}"}},{"type":"Feature","geometry":{"type":"Point","coordinates":[-77.237594,39.122765]},"properties":{"cartodb_id":231,"name":"Kentlands","street":"316 Kentlands Blvd","city":"Gaithersburg","state":"MD","zipcode":"20878-5454","__geocoding_meta_relevance":1,"__geocoding_meta_precision":"precise","__geocoding_meta_match_types":"{street}"}},{"type":"Feature","geometry":{"type":"Point","coordinates":[-76.650002,39.368659]},"properties":{"cartodb_id":232,"name":"Mt. Washington","street":"1330 Smith Ave","city":"Baltimore","state":"MD","zipcode":"21209","__geocoding_meta_relevance":1,"__geocoding_meta_precision":"precise","__geocoding_meta_match_types":"{street}"}},{"type":"Feature","geometry":{"type":"Point","coordinates":[-77.090198,38.96221]},"properties":{"cartodb_id":233,"name":"Friendship Heights","street":"4420 Willard Ave.","city":"Chevy Chase","state":"MD","zipcode":"20815","__geocoding_meta_relevance":0.93,"__geocoding_meta_precision":"interpolated","__geocoding_meta_match_types":"{street}"}},{"type":"Feature","geometry":{"type":"Point","coordinates":[-76.998212,39.005718]},"properties":{"cartodb_id":234,"name":"Silver Spring","street":"833 Wayne Ave","city":"Silver Spring","state":"MD","zipcode":"20910","__geocoding_meta_relevance":1,"__geocoding_meta_precision":"interpolated","__geocoding_meta_match_types":"{street}"}},{"type":"Feature","geometry":{"type":"Point","coordinates":[-76.599718,39.283947]},"properties":{"cartodb_id":235,"name":"Harbor East","street":"1001 Fleet Street","city":"Baltimore","state":"MD","zipcode":"21202","__geocoding_meta_relevance":1,"__geocoding_meta_precision":"precise","__geocoding_meta_match_types":"{street}"}},{"type":"Feature","geometry":{"type":"Point","coordinates":[-70.907866,42.178704]},"properties":{"cartodb_id":236,"name":"Hingham","street":"94 Derby Street","city":"Hingham","state":"MA","zipcode":"02043","__geocoding_meta_relevance":1,"__geocoding_meta_precision":"precise","__geocoding_meta_match_types":"{street}"}},{"type":"Feature","geometry":{"type":"Point","coordinates":[-71.163569,42.461086]},"properties":{"cartodb_id":237,"name":"Woburn","street":"400 Cambridge Rd.","city":"Woburn","state":"MA","zipcode":"01801","__geocoding_meta_relevance":1,"__geocoding_meta_precision":"precise","__geocoding_meta_match_types":"{street}"}},{"type":"Feature","geometry":{"type":"Point","coordinates":[-71.285549,42.302568]},"properties":{"cartodb_id":238,"name":"Wellesley","street":"442 Washington Street","city":"Wellesley","state":"MA","zipcode":"02482","__geocoding_meta_relevance":0.99,"__geocoding_meta_precision":"precise","__geocoding_meta_match_types":"{street}"}},{"type":"Feature","geometry":{"type":"Point","coordinates":[-71.126711,42.417165]},"properties":{"cartodb_id":239,"name":"Medford","street":"2151 Mystic Valley Parkway","city":"Medford","state":"MA","zipcode":"02155","__geocoding_meta_relevance":1,"__geocoding_meta_precision":"precise","__geocoding_meta_match_types":"{street}"}},{"type":"Feature","geometry":{"type":"Point","coordinates":[-71.108278,42.346178]},"properties":{"cartodb_id":240,"name":"Brookline","street":"1028 Beacon Street","city":"Brookline","state":"MA","zipcode":"02446","__geocoding_meta_relevance":1,"__geocoding_meta_precision":"precise","__geocoding_meta_match_types":"{street}"}},{"type":"Feature","geometry":{"type":"Point","coordinates":[-71.420986,42.298576]},"properties":{"cartodb_id":241,"name":"Framingham","street":"575 Worcester Rd","city":"Framingham","state":"MA","zipcode":"01701","__geocoding_meta_relevance":1,"__geocoding_meta_precision":"precise","__geocoding_meta_match_types":"{street}"}},{"type":"Feature","geometry":{"type":"Point","coordinates":[-71.062833,42.345169]},"properties":{"cartodb_id":242,"name":"South End","street":"348 Harrison Avenue","city":"Boston","state":"MA","zipcode":"02118","__geocoding_meta_relevance":1,"__geocoding_meta_precision":"precise","__geocoding_meta_match_types":"{street}"}},{"type":"Feature","geometry":{"type":"Point","coordinates":[-71.145298,42.661367]},"properties":{"cartodb_id":243,"name":"Andover","street":"40 Railroad St.","city":"Andover","state":"MA","zipcode":"01810","__geocoding_meta_relevance":1,"__geocoding_meta_precision":"precise","__geocoding_meta_match_types":"{street}"}},{"type":"Feature","geometry":{"type":"Point","coordinates":[-71.141697,42.389085]},"properties":{"cartodb_id":244,"name":"Fresh Pond","street":"200 Alewife Brook Pkwy","city":"Cambridge","state":"MA","zipcode":"02138","__geocoding_meta_relevance":1,"__geocoding_meta_precision":"precise","__geocoding_meta_match_types":"{street}"}},{"type":"Feature","geometry":{"type":"Point","coordinates":[-71.200092,42.354153]},"properties":{"cartodb_id":245,"name":"Newtonville","street":"647 Washington Street","city":"Newtonville","state":"MA","zipcode":"02458","__geocoding_meta_relevance":1,"__geocoding_meta_precision":"precise","__geocoding_meta_match_types":"{street}"}},{"type":"Feature","geometry":{"type":"Point","coordinates":[-71.102402,42.368116]},"properties":{"cartodb_id":247,"name":"Prospect Street","street":"115 Prospect St","city":"Cambridge","state":"MA","zipcode":"02139","__geocoding_meta_relevance":1,"__geocoding_meta_precision":"precise","__geocoding_meta_match_types":"{street}"}},{"type":"Feature","geometry":{"type":"Point","coordinates":[-70.953557,42.171524]},"properties":{"cartodb_id":248,"name":"South Weymouth","street":"35 Pleasant Street","city":"South Weymouth","state":"MA","zipcode":"02190","__geocoding_meta_relevance":1,"__geocoding_meta_precision":"precise","__geocoding_meta_match_types":"{street}"}},{"type":"Feature","geometry":{"type":"Point","coordinates":[-71.172152,42.229424]},"properties":{"cartodb_id":249,"name":"Dedham","street":"300 Legacy Place","city":"Dedham","state":"MA","zipcode":"02026","__geocoding_meta_relevance":1,"__geocoding_meta_precision":"precise","__geocoding_meta_match_types":"{street}"}},{"type":"Feature","geometry":{"type":"Point","coordinates":[-70.904847,42.479194]},"properties":{"cartodb_id":250,"name":"Swampscott","street":"331 Paradise Rd","city":"Swampscott","state":"MA","zipcode":"01907","__geocoding_meta_relevance":1,"__geocoding_meta_precision":"precise","__geocoding_meta_match_types":"{street}"}},{"type":"Feature","geometry":{"type":"Point","coordinates":[-71.087338,42.343945]},"properties":{"cartodb_id":251,"name":"Symphony","street":"15 Westland Ave","city":"Boston","state":"MA","zipcode":"02115","__geocoding_meta_relevance":1,"__geocoding_meta_precision":"precise","__geocoding_meta_match_types":"{street}"}},{"type":"Feature","geometry":{"type":"Point","coordinates":[-71.113855,42.361655]},"properties":{"cartodb_id":252,"name":"River Street","street":"340 River St","city":"Cambridge","state":"MA","zipcode":"02139","__geocoding_meta_relevance":1,"__geocoding_meta_precision":"precise","__geocoding_meta_match_types":"{street}"}},{"type":"Feature","geometry":{"type":"Point","coordinates":[-71.108278,42.346178]},"properties":{"cartodb_id":253,"name":"Brookline","street":"1028 Beacon Street","city":"Brookline","state":"MA","zipcode":"02446","__geocoding_meta_relevance":1,"__geocoding_meta_precision":"precise","__geocoding_meta_match_types":"{street}"}},{"type":"Feature","geometry":{"type":"Point","coordinates":[-71.126711,42.417165]},"properties":{"cartodb_id":254,"name":"Medford","street":"2151 Mystic Valley Parkway","city":"Medford","state":"MA","zipcode":"02155","__geocoding_meta_relevance":1,"__geocoding_meta_precision":"precise","__geocoding_meta_match_types":"{street}"}},{"type":"Feature","geometry":{"type":"Point","coordinates":[-71.285549,42.302568]},"properties":{"cartodb_id":255,"name":"Wellesley","street":"442 Washington Street","city":"Wellesley","state":"MA","zipcode":"02482","__geocoding_meta_relevance":0.99,"__geocoding_meta_precision":"precise","__geocoding_meta_match_types":"{street}"}},{"type":"Feature","geometry":{"type":"Point","coordinates":[-71.062833,42.345169]},"properties":{"cartodb_id":256,"name":"South End","street":"348 Harrison Avenue","city":"Boston","state":"MA","zipcode":"02118","__geocoding_meta_relevance":1,"__geocoding_meta_precision":"precise","__geocoding_meta_match_types":"{street}"}},{"type":"Feature","geometry":{"type":"Point","coordinates":[-71.200092,42.354153]},"properties":{"cartodb_id":257,"name":"Newtonville","street":"647 Washington Street","city":"Newtonville","state":"MA","zipcode":"02458","__geocoding_meta_relevance":1,"__geocoding_meta_precision":"precise","__geocoding_meta_match_types":"{street}"}},{"type":"Feature","geometry":{"type":"Point","coordinates":[-71.273901,42.491182]},"properties":{"cartodb_id":258,"name":"Bedford","street":"170 Great Rd","city":"Bedford","state":"MA","zipcode":"01730","__geocoding_meta_relevance":1,"__geocoding_meta_precision":"precise","__geocoding_meta_match_types":"{street}"}},{"type":"Feature","geometry":{"type":"Point","coordinates":[-71.113855,42.361655]},"properties":{"cartodb_id":259,"name":"River Street","street":"340 River St","city":"Cambridge","state":"MA","zipcode":"02139","__geocoding_meta_relevance":1,"__geocoding_meta_precision":"precise","__geocoding_meta_match_types":"{street}"}},{"type":"Feature","geometry":{"type":"Point","coordinates":[-71.388093,42.362997]},"properties":{"cartodb_id":260,"name":"Sudbury","street":"536 Boston Post Road","city":"Sudbury","state":"MA","zipcode":"01776","__geocoding_meta_relevance":1,"__geocoding_meta_precision":"interpolated","__geocoding_meta_match_types":"{street}"}},{"type":"Feature","geometry":{"type":"Point","coordinates":[-70.301839,41.672434]},"properties":{"cartodb_id":261,"name":"Hyannis","street":"990 Iyannough Road","city":"Hyannis","state":"MA","zipcode":"02601","__geocoding_meta_relevance":1,"__geocoding_meta_precision":"precise","__geocoding_meta_match_types":"{street}"}},{"type":"Feature","geometry":{"type":"Point","coordinates":[-71.110911,42.321447]},"properties":{"cartodb_id":262,"name":"Jamaica Plain","street":"413 Centre Street","city":"Jamaica Plain","state":"MA","zipcode":"02130","__geocoding_meta_relevance":1,"__geocoding_meta_precision":"precise","__geocoding_meta_match_types":"{street}"}},{"type":"Feature","geometry":{"type":"Point","coordinates":[-70.953557,42.171524]},"properties":{"cartodb_id":263,"name":"South Weymouth","street":"35 Pleasant Street","city":"South Weymouth","state":"MA","zipcode":"02190","__geocoding_meta_relevance":1,"__geocoding_meta_precision":"precise","__geocoding_meta_match_types":"{street}"}},{"type":"Feature","geometry":{"type":"Point","coordinates":[-71.461314,42.111221]},"properties":{"cartodb_id":264,"name":"Bellingham","street":"255 Hartford Ave","city":"Bellingham","state":"MA","zipcode":"02019","__geocoding_meta_relevance":1,"__geocoding_meta_precision":"precise","__geocoding_meta_match_types":"{street}"}},{"type":"Feature","geometry":{"type":"Point","coordinates":[-71.06261,42.464964]},"properties":{"cartodb_id":265,"name":"Melrose","street":"880 Main Street","city":"Melrose","state":"MA","zipcode":"02176-2346","__geocoding_meta_relevance":1,"__geocoding_meta_precision":"precise","__geocoding_meta_match_types":"{street}"}},{"type":"Feature","geometry":{"type":"Point","coordinates":[-71.067109,42.374808]},"properties":{"cartodb_id":266,"name":"Charlestown","street":"51 Austin St.","city":"Charlestown","state":"MA","zipcode":"02129","__geocoding_meta_relevance":1,"__geocoding_meta_precision":"precise","__geocoding_meta_match_types":"{street}"}},{"type":"Feature","geometry":{"type":"Point","coordinates":[-71.087338,42.343945]},"properties":{"cartodb_id":267,"name":"Symphony","street":"15 Westland Ave","city":"Boston","state":"MA","zipcode":"02115","__geocoding_meta_relevance":1,"__geocoding_meta_precision":"precise","__geocoding_meta_match_types":"{street}"}},{"type":"Feature","geometry":{"type":"Point","coordinates":[-83.194138,42.546384]},"properties":{"cartodb_id":268,"name":"Birmingham","street":"2100 East Maple Road","city":"Birmingham","state":"MI","zipcode":"48009","__geocoding_meta_relevance":1,"__geocoding_meta_precision":"precise","__geocoding_meta_match_types":"{street}"}},{"type":"Feature","geometry":{"type":"Point","coordinates":[-83.36118,42.553946]},"properties":{"cartodb_id":269,"name":"West Bloomfield","street":"7350 Orchard Lake Road","city":"West Bloomfield","state":"MI","zipcode":"48322","__geocoding_meta_relevance":1,"__geocoding_meta_precision":"interpolated","__geocoding_meta_match_types":"{street}"}},{"type":"Feature","geometry":{"type":"Point","coordinates":[-83.056367,42.348053]},"properties":{"cartodb_id":270,"name":"Detroit","street":"115 Mack Ave.","city":"Detroit","state":"MI","zipcode":"48201","__geocoding_meta_relevance":1,"__geocoding_meta_precision":"interpolated","__geocoding_meta_match_types":"{street}"}},{"type":"Feature","geometry":{"type":"Point","coordinates":[-83.758204,42.248419]},"properties":{"cartodb_id":271,"name":"Cranbrook","street":"990 W. Eisenhower Parkway","city":"Ann Arbor","state":"MI","zipcode":"48103","__geocoding_meta_relevance":1,"__geocoding_meta_precision":"precise","__geocoding_meta_match_types":"{street}"}},{"type":"Feature","geometry":{"type":"Point","coordinates":[-84.450695,42.726163]},"properties":{"cartodb_id":272,"name":"East Lansing","street":"2750 E. Grand River Ave.","city":"East Lansing","state":"MI","zipcode":"48823","__geocoding_meta_relevance":1,"__geocoding_meta_precision":"interpolated","__geocoding_meta_match_types":"{street}"}},{"type":"Feature","geometry":{"type":"Point","coordinates":[-83.191662,42.682246]},"properties":{"cartodb_id":273,"name":"Rochester Hills","street":"2918 Walton Blvd","city":"Rochester Hills","state":"MI","zipcode":"48309","__geocoding_meta_relevance":1,"__geocoding_meta_precision":"precise","__geocoding_meta_match_types":"{street}"}},{"type":"Feature","geometry":{"type":"Point","coordinates":[-93.445418,44.973926]},"properties":{"cartodb_id":275,"name":"Minnetonka","street":"1001 Plymouth Road","city":"Minnetonka","state":"MN","zipcode":"55305","__geocoding_meta_relevance":1,"__geocoding_meta_precision":"precise","__geocoding_meta_match_types":"{street}"}},{"type":"Feature","geometry":{"type":"Point","coordinates":[-93.327931,44.867824]},"properties":{"cartodb_id":276,"name":"Edina","street":"7401 France Ave S","city":"Edina","state":"MN","zipcode":"55435","__geocoding_meta_relevance":1,"__geocoding_meta_precision":"precise","__geocoding_meta_match_types":"{street}"}},{"type":"Feature","geometry":{"type":"Point","coordinates":[-92.930196,44.942729]},"properties":{"cartodb_id":277,"name":"Woodbury","street":"305 Radio Drive","city":"Woodbury","state":"MN","zipcode":"55125","__geocoding_meta_relevance":1,"__geocoding_meta_precision":"precise","__geocoding_meta_match_types":"{street}"}},{"type":"Feature","geometry":{"type":"Point","coordinates":[-93.256603,44.987524]},"properties":{"cartodb_id":278,"name":"Hennepin","street":"222 Hennepin Avenue","city":"Minneapolis","state":"MN","zipcode":"55401","__geocoding_meta_relevance":1,"__geocoding_meta_precision":"precise","__geocoding_meta_match_types":"{street}"}},{"type":"Feature","geometry":{"type":"Point","coordinates":[-93.43581,45.091278]},"properties":{"cartodb_id":279,"name":"Maple Grove","street":"12201 Elm Creek Blvd N","city":"Maple Grove","state":"MN","zipcode":"55369","__geocoding_meta_relevance":1,"__geocoding_meta_precision":"precise","__geocoding_meta_match_types":"{street}"}},{"type":"Feature","geometry":{"type":"Point","coordinates":[-93.322197,44.947789]},"properties":{"cartodb_id":280,"name":"Lake Calhoun","street":"3060 Excelsior Blvd","city":"Minneapolis","state":"MN","zipcode":"55416","__geocoding_meta_relevance":1,"__geocoding_meta_precision":"precise","__geocoding_meta_match_types":"{street}"}},{"type":"Feature","geometry":{"type":"Point","coordinates":[-93.166766,44.946751]},"properties":{"cartodb_id":281,"name":"St Paul","street":"1575 Selby Ave.","city":"St Paul","state":"MN","zipcode":"55104","__geocoding_meta_relevance":1,"__geocoding_meta_precision":"precise","__geocoding_meta_match_types":"{street}"}},{"type":"Feature","geometry":{"type":"Point","coordinates":[-90.1848,32.299]},"properties":{"cartodb_id":282,"name":"Jackson","street":"4500 I-55 North Suite 99","city":"Jackson","state":"MS","zipcode":"39211","__geocoding_meta_relevance":0.5,"__geocoding_meta_precision":"precise","__geocoding_meta_match_types":"{point_of_interest}"}},{"type":"Feature","geometry":{"type":"Point","coordinates":[-94.58369,39.034565]},"properties":{"cartodb_id":283,"name":"Kansas City","street":"301 E. 51st Street","city":"Kansas City","state":"MO","zipcode":"64112","__geocoding_meta_relevance":1,"__geocoding_meta_precision":"precise","__geocoding_meta_match_types":"{street}"}},{"type":"Feature","geometry":{"type":"Point","coordinates":[-90.261108,38.641977]},"properties":{"cartodb_id":284,"name":"Central West End","street":"4577 West Pine Blvd","city":"St. Louis","state":"MO","zipcode":"63108","__geocoding_meta_relevance":1,"__geocoding_meta_precision":"precise","__geocoding_meta_match_types":"{street}"}},{"type":"Feature","geometry":{"type":"Point","coordinates":[-90.515736,38.622074]},"properties":{"cartodb_id":285,"name":"Town and Country","street":"1160 Town and Country Crossing","city":"Town and Country","state":"MO","zipcode":"63017","__geocoding_meta_relevance":0.67,"__geocoding_meta_precision":"precise","__geocoding_meta_match_types":"{street}"}},{"type":"Feature","geometry":{"type":"Point","coordinates":[-90.347671,38.627023]},"properties":{"cartodb_id":286,"name":"Galleria","street":"1601 S. Brentwood Blvd","city":"Saint Louis","state":"MO","zipcode":"63144","__geocoding_meta_relevance":1,"__geocoding_meta_precision":"precise","__geocoding_meta_match_types":"{street}"}},{"type":"Feature","geometry":{"type":"Point","coordinates":[-96.068373,41.261644]},"properties":{"cartodb_id":287,"name":"Omaha","street":"10020 Regency Circle","city":"Omaha","state":"NE","zipcode":"68114","__geocoding_meta_relevance":1,"__geocoding_meta_precision":"precise","__geocoding_meta_match_types":"{street}"}},{"type":"Feature","geometry":{"type":"Point","coordinates":[-96.639073,40.812942]},"properties":{"cartodb_id":288,"name":"Lincoln","street":"6055 O Street","city":"Lincoln","state":"NE","zipcode":"68510","__geocoding_meta_relevance":1,"__geocoding_meta_precision":"precise","__geocoding_meta_match_types":"{street}"}},{"type":"Feature","geometry":{"type":"Point","coordinates":[-115.08307,36.02328]},"properties":{"cartodb_id":289,"name":"Henderson","street":"100 S. Green Valley Pkwy","city":"Henderson","state":"NV","zipcode":"89012","__geocoding_meta_relevance":1,"__geocoding_meta_precision":"precise","__geocoding_meta_match_types":"{street}"}},{"type":"Feature","geometry":{"type":"Point","coordinates":[-115.1492,36.1663]},"properties":{"cartodb_id":290,"name":"Tenaya","street":"7250 W. Lake Mead Blvd.","city":"Las Vegas","state":"NV","zipcode":"89128","__geocoding_meta_relevance":0.5,"__geocoding_meta_precision":"precise","__geocoding_meta_match_types":"{point_of_interest}"}},{"type":"Feature","geometry":{"type":"Point","coordinates":[-115.287098,36.15898]},"properties":{"cartodb_id":291,"name":"Fort Apache","street":"8855 West Charleston Blvd.","city":"Las Vegas","state":"NV","zipcode":"89117","__geocoding_meta_relevance":1,"__geocoding_meta_precision":"interpolated","__geocoding_meta_match_types":"{street}"}},{"type":"Feature","geometry":{"type":"Point","coordinates":[-119.78671,39.468963]},"properties":{"cartodb_id":292,"name":"Reno","street":"6139 S. Virginia Street","city":"Reno","state":"NV","zipcode":"89502","__geocoding_meta_relevance":1,"__geocoding_meta_precision":"precise","__geocoding_meta_match_types":"{street}"}},{"type":"Feature","geometry":{"type":"Point","coordinates":[-114.952506,36.311775]},"properties":{"cartodb_id":293,"name":"Las Vegas Blvd","street":"6689 Las Vegas Blvd.","city":"Las Vegas","state":"NV","zipcode":"89119","__geocoding_meta_relevance":0.67,"__geocoding_meta_precision":"interpolated","__geocoding_meta_match_types":"{street}"}},{"type":"Feature","geometry":{"type":"Point","coordinates":[-71.495857,42.779975]},"properties":{"cartodb_id":294,"name":"Nashua","street":"255 Amherst Street","city":"Nashua","state":"NH","zipcode":"03063","__geocoding_meta_relevance":1,"__geocoding_meta_precision":"precise","__geocoding_meta_match_types":"{street}"}},{"type":"Feature","geometry":{"type":"Point","coordinates":[-71.461371,42.92902]},"properties":{"cartodb_id":295,"name":"Bedford New Hampshire","street":"121 South River Rd","city":"Bedford","state":"NH","zipcode":"03110","__geocoding_meta_relevance":1,"__geocoding_meta_precision":"interpolated","__geocoding_meta_match_types":"{street}"}},{"type":"Feature","geometry":{"type":"Point","coordinates":[-74.5385,40.5684]},"properties":{"cartodb_id":296,"name":"Bridgewater","street":"319 Chimney Rock Road","city":"Bound Brook","state":"NJ","zipcode":"08805","__geocoding_meta_relevance":0.67,"__geocoding_meta_precision":"precise","__geocoding_meta_match_types":"{point_of_interest}"}},{"type":"Feature","geometry":{"type":"Point","coordinates":[-74.92058,39.857708]},"properties":{"cartodb_id":297,"name":"Marlton","street":"940 Route 73 North","city":"Marlton","state":"NJ","zipcode":"08053","__geocoding_meta_relevance":1,"__geocoding_meta_precision":"precise","__geocoding_meta_match_types":"{street}"}},{"type":"Feature","geometry":{"type":"Point","coordinates":[-74.309548,40.352027]},"properties":{"cartodb_id":298,"name":"Marlboro","street":"113 Route 9 South","city":"Marlboro","state":"NJ","zipcode":"07726","__geocoding_meta_relevance":0.7,"__geocoding_meta_precision":"precise","__geocoding_meta_match_types":"{street}"}},{"type":"Feature","geometry":{"type":"Point","coordinates":[-74.223196,40.81849]},"properties":{"cartodb_id":299,"name":"Montclair","street":"701 Bloomfield Ave","city":"Montclair","state":"NJ","zipcode":"07042","__geocoding_meta_relevance":1,"__geocoding_meta_precision":"precise","__geocoding_meta_match_types":"{street}"}},{"type":"Feature","geometry":{"type":"Point","coordinates":[-74.458242,40.792236]},"properties":{"cartodb_id":300,"name":"Morristown","street":"110 Washington Street","city":"Morristown","state":"NJ","zipcode":"07960","__geocoding_meta_relevance":1,"__geocoding_meta_precision":"precise","__geocoding_meta_match_types":"{street}"}},{"type":"Feature","geometry":{"type":"Point","coordinates":[-74.306231,40.632236]},"properties":{"cartodb_id":301,"name":"Clark","street":"1255 Raritan Road Unit 150","city":"Clark","state":"NJ","zipcode":"07066","__geocoding_meta_relevance":0.6,"__geocoding_meta_precision":"precise","__geocoding_meta_match_types":"{street}"}},{"type":"Feature","geometry":{"type":"Point","coordinates":[-74.6593,40.3493]},"properties":{"cartodb_id":302,"name":"Princeton","street":"3495 US Route 1 South","city":"Princeton","state":"NJ","zipcode":"08540","__geocoding_meta_relevance":0.5,"__geocoding_meta_precision":"precise","__geocoding_meta_match_types":"{point_of_interest}"}},{"type":"Feature","geometry":{"type":"Point","coordinates":[-74.366666,40.540679]},"properties":{"cartodb_id":303,"name":"Metuchen","street":"645 Middlesex Avenue","city":"Metuchen","state":"NJ","zipcode":"08840","__geocoding_meta_relevance":0.92,"__geocoding_meta_precision":"precise","__geocoding_meta_match_types":"{street}"}},{"type":"Feature","geometry":{"type":"Point","coordinates":[-74.056702,40.155533]},"properties":{"cartodb_id":304,"name":"Spring Lake Wall","street":"1933 State Road 35","city":"Wall","state":"NJ","zipcode":"07719","__geocoding_meta_relevance":0.99,"__geocoding_meta_precision":"precise","__geocoding_meta_match_types":"{street}"}},{"type":"Feature","geometry":{"type":"Point","coordinates":[-73.97439,40.825224]},"properties":{"cartodb_id":305,"name":"Edgewater","street":"905 River Road","city":"Edgewater","state":"NJ","zipcode":"07020","__geocoding_meta_relevance":1,"__geocoding_meta_precision":"precise","__geocoding_meta_match_types":"{street}"}},{"type":"Feature","geometry":{"type":"Point","coordinates":[-74.122909,40.978895]},"properties":{"cartodb_id":307,"name":"Ridgewood","street":"44 Godwin Ave","city":"Ridgewood","state":"NJ","zipcode":"07450","__geocoding_meta_relevance":1,"__geocoding_meta_precision":"precise","__geocoding_meta_match_types":"{street}"}},{"type":"Feature","geometry":{"type":"Point","coordinates":[-74.029491,40.316529]},"properties":{"cartodb_id":308,"name":"Middletown","street":"471 State Route 35 North","city":"Red Bank","state":"NJ","zipcode":"07701-5036","__geocoding_meta_relevance":0.75,"__geocoding_meta_precision":"interpolated","__geocoding_meta_match_types":"{street}"}},{"type":"Feature","geometry":{"type":"Point","coordinates":[-73.959109,40.970848]},"properties":{"cartodb_id":309,"name":"Closter","street":"45 Vervalen Street","city":"Closter","state":"NJ","zipcode":"07624","__geocoding_meta_relevance":0.92,"__geocoding_meta_precision":"interpolated","__geocoding_meta_match_types":"{street}"}},{"type":"Feature","geometry":{"type":"Point","coordinates":[-74.247853,40.802805]},"properties":{"cartodb_id":310,"name":"West Orange","street":"235 Prospect Ave","city":"West Orange","state":"NJ","zipcode":"07052","__geocoding_meta_relevance":1,"__geocoding_meta_precision":"interpolated","__geocoding_meta_match_types":"{street}"}},{"type":"Feature","geometry":{"type":"Point","coordinates":[-74.169818,40.740272]},"properties":{"cartodb_id":311,"name":"Newark","street":"633 Broad Street","city":"Newark","state":"NJ","zipcode":"07102","__geocoding_meta_relevance":1,"__geocoding_meta_precision":"precise","__geocoding_meta_match_types":"{street}"}},{"type":"Feature","geometry":{"type":"Point","coordinates":[-74.019148,40.937343]},"properties":{"cartodb_id":312,"name":"Paramus","street":"300 Bergen Town Center","city":"Paramus","state":"NJ","zipcode":"07652","__geocoding_meta_relevance":0.45,"__geocoding_meta_precision":"interpolated","__geocoding_meta_match_types":"{street}"}},{"type":"Feature","geometry":{"type":"Point","coordinates":[-74.287724,40.717119]},"properties":{"cartodb_id":313,"name":"Millburn - Union","street":"2245 Springfield Ave.","city":"Vauxhall","state":"NJ","zipcode":"07088","__geocoding_meta_relevance":1,"__geocoding_meta_precision":"precise","__geocoding_meta_match_types":"{street}"}},{"type":"Feature","geometry":{"type":"Point","coordinates":[-75.00979,39.914258]},"properties":{"cartodb_id":314,"name":"Cherry Hill","street":"1558 North Kings Highway","city":"Cherry Hill","state":"NJ","zipcode":"08034","__geocoding_meta_relevance":1,"__geocoding_meta_precision":"interpolated","__geocoding_meta_match_types":"{street}"}},{"type":"Feature","geometry":{"type":"Point","coordinates":[-105.95036,35.678977]},"properties":{"cartodb_id":315,"name":"Santa Fe (Cerrillos)","street":"753 Cerrillos Rd","city":"Santa Fe","state":"NM","zipcode":"87505","__geocoding_meta_relevance":1,"__geocoding_meta_precision":"precise","__geocoding_meta_match_types":"{street}"}},{"type":"Feature","geometry":{"type":"Point","coordinates":[-105.95036,35.678977]},"properties":{"cartodb_id":316,"name":"Santa Fe (Cerrillos)","street":"753 Cerrillos Rd","city":"Santa Fe","state":"NM","zipcode":"87505","__geocoding_meta_relevance":1,"__geocoding_meta_precision":"precise","__geocoding_meta_match_types":"{street}"}},{"type":"Feature","geometry":{"type":"Point","coordinates":[-106.60502,35.102856]},"properties":{"cartodb_id":317,"name":"Indian School Plaza","street":"2103 Carlisle Boulevard NE","city":"Albuquerque","state":"NM","zipcode":"87110","__geocoding_meta_relevance":1,"__geocoding_meta_precision":"precise","__geocoding_meta_match_types":"{street}"}},{"type":"Feature","geometry":{"type":"Point","coordinates":[-73.979434,40.669467]},"properties":{"cartodb_id":318,"name":"Chelsea","street":"250 7th Ave","city":"New York","state":"NY","zipcode":"10001","__geocoding_meta_relevance":1,"__geocoding_meta_precision":"interpolated","__geocoding_meta_match_types":"{street}"}},{"type":"Feature","geometry":{"type":"Point","coordinates":[-73.9808,40.7648]},"properties":{"cartodb_id":319,"name":"Bowery","street":"95 East Houston St","city":"New York","state":"NY","zipcode":"10002","__geocoding_meta_relevance":0.67,"__geocoding_meta_precision":"precise","__geocoding_meta_match_types":"{point_of_interest}"}},{"type":"Feature","geometry":{"type":"Point","coordinates":[-73.9496,40.6501]},"properties":{"cartodb_id":320,"name":"365 Fort Greene","street":"292 Ashland Place","city":"Brooklyn","state":"NY","zipcode":"11217","__geocoding_meta_relevance":0.67,"__geocoding_meta_precision":"precise","__geocoding_meta_match_types":"{locality}"}},{"type":"Feature","geometry":{"type":"Point","coordinates":[-73.988823,40.675473]},"properties":{"cartodb_id":321,"name":"Third and 3rd (Brooklyn)","street":"214 3rd Street","city":"Brooklyn","state":"NY","zipcode":"11215","__geocoding_meta_relevance":1,"__geocoding_meta_precision":"interpolated","__geocoding_meta_match_types":"{street}"}},{"type":"Feature","geometry":{"type":"Point","coordinates":[-73.1151,40.8529]},"properties":{"cartodb_id":322,"name":"Lake Grove","street":"Lake Grove Commons","city":"Lake Grove","state":"NY","zipcode":"11755","__geocoding_meta_relevance":0.5,"__geocoding_meta_precision":"precise","__geocoding_meta_match_types":"{point_of_interest}"}},{"type":"Feature","geometry":{"type":"Point","coordinates":[-73.966553,40.794646]},"properties":{"cartodb_id":323,"name":"Upper West Side","street":"808 Columbus Avenue","city":"New York","state":"NY","zipcode":"10025","__geocoding_meta_relevance":0.83,"__geocoding_meta_precision":"precise","__geocoding_meta_match_types":"{street}"}},{"type":"Feature","geometry":{"type":"Point","coordinates":[-73.984576,40.754569]},"properties":{"cartodb_id":324,"name":"Bryant Park","street":"1095 Avenue of the Americas","city":"New York","state":"NY","zipcode":"10036","__geocoding_meta_relevance":1,"__geocoding_meta_precision":"precise","__geocoding_meta_match_types":"{street}"}},{"type":"Feature","geometry":{"type":"Point","coordinates":[-74.022171,40.639789]},"properties":{"cartodb_id":325,"name":"Upper East Side","street":"1551 3rd Ave","city":"New York","state":"NY","zipcode":"10128","__geocoding_meta_relevance":1,"__geocoding_meta_precision":"interpolated","__geocoding_meta_match_types":"{street}"}},{"type":"Feature","geometry":{"type":"Point","coordinates":[-73.757893,41.023164]},"properties":{"cartodb_id":326,"name":"White Plains","street":"110 Bloomingdale Road","city":"White Plains","state":"NY","zipcode":"10605-1503","__geocoding_meta_relevance":1,"__geocoding_meta_precision":"interpolated","__geocoding_meta_match_types":"{street}"}},{"type":"Feature","geometry":{"type":"Point","coordinates":[-73.959739,40.716106]},"properties":{"cartodb_id":327,"name":"Williamsburg","street":"238 Bedford Ave","city":"Brooklyn","state":"NY","zipcode":"11249","__geocoding_meta_relevance":1,"__geocoding_meta_precision":"precise","__geocoding_meta_match_types":"{street}"}},{"type":"Feature","geometry":{"type":"Point","coordinates":[-73.991652,40.734384]},"properties":{"cartodb_id":328,"name":"Union Square","street":"4 Union Square South","city":"New York","state":"NY","zipcode":"10003","__geocoding_meta_relevance":0.83,"__geocoding_meta_precision":"precise","__geocoding_meta_match_types":"{street}"}},{"type":"Feature","geometry":{"type":"Point","coordinates":[-73.820687,42.707232]},"properties":{"cartodb_id":329,"name":"Albany","street":"1425 Central Ave","city":"Albany","state":"NY","zipcode":"12205","__geocoding_meta_relevance":1,"__geocoding_meta_precision":"precise","__geocoding_meta_match_types":"{street}"}},{"type":"Feature","geometry":{"type":"Point","coordinates":[-73.672264,40.995227]},"properties":{"cartodb_id":330,"name":"Port Chester","street":"575 Boston Post Road","city":"Port Chester","state":"NY","zipcode":"10573","__geocoding_meta_relevance":0.75,"__geocoding_meta_precision":"precise","__geocoding_meta_match_types":"{street}"}},{"type":"Feature","geometry":{"type":"Point","coordinates":[-78.816868,42.979358]},"properties":{"cartodb_id":331,"name":"Buffalo","street":"3139 Sheridan Dr","city":"Amherst","state":"NY","zipcode":"14226","__geocoding_meta_relevance":1,"__geocoding_meta_precision":"precise","__geocoding_meta_match_types":"{street}"}},{"type":"Feature","geometry":{"type":"Point","coordinates":[-73.8987,40.9312]},"properties":{"cartodb_id":332,"name":"Yonkers","street":"b\"Westchester's Ridge Hill\"","city":"Yonkers","state":"NY","zipcode":"10710","__geocoding_meta_relevance":0.4,"__geocoding_meta_precision":"precise","__geocoding_meta_match_types":"{point_of_interest}"}},{"type":"Feature","geometry":{"type":"Point","coordinates":[-73.945866,40.807935]},"properties":{"cartodb_id":333,"name":"Harlem","street":"100 W 125th St.","city":"New York","state":"NY","zipcode":"10027","__geocoding_meta_relevance":0.83,"__geocoding_meta_precision":"interpolated","__geocoding_meta_match_types":"{street}"}},{"type":"Feature","geometry":{"type":"Point","coordinates":[-74.011414,40.715488]},"properties":{"cartodb_id":334,"name":"Tribeca","street":"270 Greenwich Street","city":"New York","state":"NY","zipcode":"10007","__geocoding_meta_relevance":1,"__geocoding_meta_precision":"precise","__geocoding_meta_match_types":"{street}"}},{"type":"Feature","geometry":{"type":"Point","coordinates":[-73.982566,40.768443]},"properties":{"cartodb_id":335,"name":"Columbus Circle","street":"10 Columbus Circle","city":"New York","state":"NY","zipcode":"10019","__geocoding_meta_relevance":0.83,"__geocoding_meta_precision":"precise","__geocoding_meta_match_types":"{street}"}},{"type":"Feature","geometry":{"type":"Point","coordinates":[-73.534614,40.78891]},"properties":{"cartodb_id":336,"name":"Jericho","street":"429 North Broadway","city":"Jericho","state":"NY","zipcode":"11753-2106","__geocoding_meta_relevance":1,"__geocoding_meta_precision":"precise","__geocoding_meta_match_types":"{street}"}},{"type":"Feature","geometry":{"type":"Point","coordinates":[-73.757893,41.023164]},"properties":{"cartodb_id":337,"name":"White Plains","street":"110 Bloomingdale Road","city":"White Plains","state":"NY","zipcode":"10605-1503","__geocoding_meta_relevance":1,"__geocoding_meta_precision":"interpolated","__geocoding_meta_match_types":"{street}"}},{"type":"Feature","geometry":{"type":"Point","coordinates":[-73.9808,40.7648]},"properties":{"cartodb_id":338,"name":"Bowery","street":"95 East Houston St","city":"New York","state":"NY","zipcode":"10002","__geocoding_meta_relevance":0.67,"__geocoding_meta_precision":"precise","__geocoding_meta_match_types":"{point_of_interest}"}},{"type":"Feature","geometry":{"type":"Point","coordinates":[-78.881922,35.833486]},"properties":{"cartodb_id":339,"name":"West Cary","street":"5055 Arco Street","city":"Cary","state":"NC","zipcode":"27519","__geocoding_meta_relevance":1,"__geocoding_meta_precision":"precise","__geocoding_meta_match_types":"{street}"}},{"type":"Feature","geometry":{"type":"Point","coordinates":[-78.920618,36.007147]},"properties":{"cartodb_id":340,"name":"Durham","street":"621 Broad Street","city":"Durham","state":"NC","zipcode":"27705","__geocoding_meta_relevance":1,"__geocoding_meta_precision":"precise","__geocoding_meta_match_types":"{street}"}},{"type":"Feature","geometry":{"type":"Point","coordinates":[-82.554623,35.601881]},"properties":{"cartodb_id":341,"name":"Asheville","street":"70 Merrimon Ave","city":"Asheville","state":"NC","zipcode":"28801","__geocoding_meta_relevance":1,"__geocoding_meta_precision":"precise","__geocoding_meta_match_types":"{street}"}},{"type":"Feature","geometry":{"type":"Point","coordinates":[-78.7775,35.7382]},"properties":{"cartodb_id":342,"name":"Cary","street":"102B New Waverly Place","city":"Cary","state":"NC","zipcode":"27518","__geocoding_meta_relevance":0.75,"__geocoding_meta_precision":"precise","__geocoding_meta_match_types":"{}"}},{"type":"Feature","geometry":{"type":"Point","coordinates":[-78.6391,35.7804]},"properties":{"cartodb_id":343,"name":"Raleigh","street":"3540 Wade Ave","city":"Raleigh","state":"NC","zipcode":"27607","__geocoding_meta_relevance":0.67,"__geocoding_meta_precision":"precise","__geocoding_meta_match_types":"{point_of_interest}"}},{"type":"Feature","geometry":{"type":"Point","coordinates":[-78.65024,35.898899]},"properties":{"cartodb_id":344,"name":"North Raleigh","street":"8710 Six Forks Rd","city":"Raleigh","state":"NC","zipcode":"27615","__geocoding_meta_relevance":1,"__geocoding_meta_precision":"precise","__geocoding_meta_match_types":"{street}"}},{"type":"Feature","geometry":{"type":"Point","coordinates":[-80.273825,36.094323]},"properties":{"cartodb_id":345,"name":"Winston-Salem","street":"41 Miller Street","city":"Winston-Salem","state":"NC","zipcode":"27104","__geocoding_meta_relevance":1,"__geocoding_meta_precision":"precise","__geocoding_meta_match_types":"{street}"}},{"type":"Feature","geometry":{"type":"Point","coordinates":[-80.871661,35.444043]},"properties":{"cartodb_id":346,"name":"Lake Norman","street":"9129 Sam Furr Rd.","city":"Huntersville","state":"NC","zipcode":"28078","__geocoding_meta_relevance":1,"__geocoding_meta_precision":"precise","__geocoding_meta_match_types":"{street}"}},{"type":"Feature","geometry":{"type":"Point","coordinates":[-80.845851,35.220447]},"properties":{"cartodb_id":347,"name":"Uptown Charlotte","street":"400 East Stonewall St.","city":"Charlotte","state":"NC","zipcode":"28202","__geocoding_meta_relevance":1,"__geocoding_meta_precision":"precise","__geocoding_meta_match_types":"{street}"}},{"type":"Feature","geometry":{"type":"Point","coordinates":[-79.0558,35.9132]},"properties":{"cartodb_id":348,"name":"Chapel Hill","street":"81 South Elliot Road","city":"Chapel Hill","state":"NC","zipcode":"27514","__geocoding_meta_relevance":0.67,"__geocoding_meta_precision":"precise","__geocoding_meta_match_types":"{point_of_interest}"}},{"type":"Feature","geometry":{"type":"Point","coordinates":[-80.8431,35.2271]},"properties":{"cartodb_id":349,"name":"Waverly","street":"7221 Waverly Walk Ave.","city":"Charlotte","state":"NC","zipcode":"28277","__geocoding_meta_relevance":0.5,"__geocoding_meta_precision":"precise","__geocoding_meta_match_types":"{point_of_interest}"}},{"type":"Feature","geometry":{"type":"Point","coordinates":[-79.833986,36.08613]},"properties":{"cartodb_id":350,"name":"Greensboro Friendly","street":"3202 West Friendly Avenue","city":"Greensboro","state":"NC","zipcode":"27408-7604","__geocoding_meta_relevance":1,"__geocoding_meta_precision":"precise","__geocoding_meta_match_types":"{street}"}},{"type":"Feature","geometry":{"type":"Point","coordinates":[-77.90114,34.213375]},"properties":{"cartodb_id":351,"name":"Wilmington","street":"3804 Oleander Drive","city":"Wilmington","state":"NC","zipcode":"28403","__geocoding_meta_relevance":1,"__geocoding_meta_precision":"precise","__geocoding_meta_match_types":"{street}"}},{"type":"Feature","geometry":{"type":"Point","coordinates":[-82.525023,35.582845]},"properties":{"cartodb_id":352,"name":"East Asheville","street":"4 South Tunnel Rd.","city":"Asheville","state":"NC","zipcode":"28805","__geocoding_meta_relevance":1,"__geocoding_meta_precision":"precise","__geocoding_meta_match_types":"{street}"}},{"type":"Feature","geometry":{"type":"Point","coordinates":[-80.8431,35.2271]},"properties":{"cartodb_id":353,"name":"Charlotte","street":"6610 Fairview Rd.","city":"Charlotte","state":"NC","zipcode":"28210","__geocoding_meta_relevance":0.67,"__geocoding_meta_precision":"precise","__geocoding_meta_match_types":"{point_of_interest}"}},{"type":"Feature","geometry":{"type":"Point","coordinates":[-84.318759,39.308058]},"properties":{"cartodb_id":354,"name":"Mason","street":"5805 Deerfield Boulevard","city":"Mason","state":"OH","zipcode":"45040","__geocoding_meta_relevance":1,"__geocoding_meta_precision":"interpolated","__geocoding_meta_match_types":"{street}"}},{"type":"Feature","geometry":{"type":"Point","coordinates":[-84.189935,39.627171]},"properties":{"cartodb_id":355,"name":"Dayton","street":"1050 Miamisburg Centerville Road","city":"Dayton","state":"OH","zipcode":"45458","__geocoding_meta_relevance":1,"__geocoding_meta_precision":"precise","__geocoding_meta_match_types":"{street}"}},{"type":"Feature","geometry":{"type":"Point","coordinates":[-84.447126,39.145754]},"properties":{"cartodb_id":356,"name":"Cincinnati","street":"2693 Edmondson Rd.","city":"Cincinnati","state":"OH","zipcode":"45209","__geocoding_meta_relevance":1,"__geocoding_meta_precision":"precise","__geocoding_meta_match_types":"{street}"}},{"type":"Feature","geometry":{"type":"Point","coordinates":[-83.821612,39.443593]},"properties":{"cartodb_id":357,"name":"Orange Village","street":"50 Wall St","city":"Orange","state":"OH","zipcode":"44122","__geocoding_meta_relevance":0.67,"__geocoding_meta_precision":"interpolated","__geocoding_meta_match_types":"{street}"}},{"type":"Feature","geometry":{"type":"Point","coordinates":[-81.571193,41.110993]},"properties":{"cartodb_id":358,"name":"365 Akron","street":"1745 W. Market Street","city":"Akron","state":"OH","zipcode":"44313","__geocoding_meta_relevance":1,"__geocoding_meta_precision":"precise","__geocoding_meta_match_types":"{street}"}},{"type":"Feature","geometry":{"type":"Point","coordinates":[-83.052,40.006761]},"properties":{"cartodb_id":359,"name":"Upper Arlington","street":"1555 W. Lane Ave","city":"Upper Arlington","state":"OH","zipcode":"43221","__geocoding_meta_relevance":1,"__geocoding_meta_precision":"precise","__geocoding_meta_match_types":"{street}"}},{"type":"Feature","geometry":{"type":"Point","coordinates":[-81.843691,41.478736]},"properties":{"cartodb_id":360,"name":"Rocky River","street":"19607 Detroit Road","city":"Rocky River","state":"OH","zipcode":"44116","__geocoding_meta_relevance":1,"__geocoding_meta_precision":"interpolated","__geocoding_meta_match_types":"{street}"}},{"type":"Feature","geometry":{"type":"Point","coordinates":[-81.536882,41.50102]},"properties":{"cartodb_id":361,"name":"Cedar Center","street":"13998 Cedar Rd.","city":"University Heights","state":"OH","zipcode":"44118","__geocoding_meta_relevance":0.67,"__geocoding_meta_precision":"precise","__geocoding_meta_match_types":"{street}"}},{"type":"Feature","geometry":{"type":"Point","coordinates":[-82.909723,40.056819]},"properties":{"cartodb_id":362,"name":"Easton","street":"4100 Easton Gateway Drive","city":"Columbus","state":"OH","zipcode":"43219","__geocoding_meta_relevance":1,"__geocoding_meta_precision":"precise","__geocoding_meta_match_types":"{street}"}},{"type":"Feature","geometry":{"type":"Point","coordinates":[-83.08678,40.098335]},"properties":{"cartodb_id":363,"name":"Columbus","street":"3670 W. Dublin-Granville Rd","city":"Columbus","state":"OH","zipcode":"43235","__geocoding_meta_relevance":1,"__geocoding_meta_precision":"precise","__geocoding_meta_match_types":"{street}"}},{"type":"Feature","geometry":{"type":"Point","coordinates":[-95.935817,36.175755]},"properties":{"cartodb_id":364,"name":"Brookside","street":"1401 East 41st Street","city":"Tulsa","state":"OK","zipcode":"74105","__geocoding_meta_relevance":1,"__geocoding_meta_precision":"interpolated","__geocoding_meta_match_types":"{street}"}},{"type":"Feature","geometry":{"type":"Point","coordinates":[-95.922278,36.031449]},"properties":{"cartodb_id":365,"name":"Yale","street":"9136 S. Yale Ave.","city":"Tulsa","state":"OK","zipcode":"74137","__geocoding_meta_relevance":1,"__geocoding_meta_precision":"interpolated","__geocoding_meta_match_types":"{street}"}},{"type":"Feature","geometry":{"type":"Point","coordinates":[-97.530275,35.533418]},"properties":{"cartodb_id":366,"name":"Oklahoma City","street":"6001 N. Western Ave.","city":"Oklahoma City","state":"OK","zipcode":"73118","__geocoding_meta_relevance":1,"__geocoding_meta_precision":"precise","__geocoding_meta_match_types":"{street}"}},{"type":"Feature","geometry":{"type":"Point","coordinates":[-122.80183,45.442517]},"properties":{"cartodb_id":367,"name":"Greenway","street":"12220 SW Scholls Ferry Road","city":"Tigard","state":"OR","zipcode":"97223","__geocoding_meta_relevance":1,"__geocoding_meta_precision":"precise","__geocoding_meta_match_types":"{street}"}},{"type":"Feature","geometry":{"type":"Point","coordinates":[-122.75147,45.394486]},"properties":{"cartodb_id":368,"name":"Bridgeport","street":"7380 SW Bridgeport Rd.","city":"Tigard","state":"OR","zipcode":"97224","__geocoding_meta_relevance":1,"__geocoding_meta_precision":"precise","__geocoding_meta_match_types":"{street}"}},{"type":"Feature","geometry":{"type":"Point","coordinates":[-121.26594,44.056321]},"properties":{"cartodb_id":369,"name":"Bend","street":"2610 Highway 20","city":"Bend","state":"OR","zipcode":"97701-6261","__geocoding_meta_relevance":0.93,"__geocoding_meta_precision":"precise","__geocoding_meta_match_types":"{street}"}},{"type":"Feature","geometry":{"type":"Point","coordinates":[-122.50282,45.510851]},"properties":{"cartodb_id":370,"name":"b'Fremont - Oregon'","street":"b'3535 NE 15th Ave.'","city":"b'Portland'","state":"b'OR'","zipcode":"b'97212'","__geocoding_meta_relevance":0.48,"__geocoding_meta_precision":"precise","__geocoding_meta_match_types":"{street}"}},{"type":"Feature","geometry":{"type":"Point","coordinates":[-122.55517,45.526506]},"properties":{"cartodb_id":371,"name":"b'Hollywood'","street":"b'4301 NE Sandy Blvd.'","city":"b'Portland'","state":"b'OR'","zipcode":"b'97213'","__geocoding_meta_relevance":0.48,"__geocoding_meta_precision":"precise","__geocoding_meta_match_types":"{street}"}},{"type":"Feature","geometry":{"type":"Point","coordinates":[27.22111,38.46972]},"properties":{"cartodb_id":372,"name":"b'Laurelhurst'","street":"b'2825 East Burnside St.'","city":"b'Portland'","state":"b'OR'","zipcode":"b'97214'","__geocoding_meta_relevance":0.25,"__geocoding_meta_precision":"precise","__geocoding_meta_match_types":"{point_of_interest}"}},{"type":"Feature","geometry":{"type":"Point","coordinates":[-122.66388,45.41325]},"properties":{"cartodb_id":373,"name":"b'365 Lake Oswego'","street":"b'11 S State St.'","city":"b'Lake Oswego'","state":"b'OR'","zipcode":"b'97034'","__geocoding_meta_relevance":0.48,"__geocoding_meta_precision":"precise","__geocoding_meta_match_types":"{street}"}},{"type":"Feature","geometry":{"type":"Point","coordinates":[-123.08674,44.049706]},"properties":{"cartodb_id":374,"name":"b'Eugene'","street":"b'353 E Broadway'","city":"b'Eugene'","state":"b'OR'","zipcode":"b'97401'","__geocoding_meta_relevance":0.48,"__geocoding_meta_precision":"precise","__geocoding_meta_match_types":"{street}"}},{"type":"Feature","geometry":{"type":"Point","coordinates":[-122.6752,45.526089]},"properties":{"cartodb_id":375,"name":"b'Pearl District Portland'","street":"b'1210 NW Couch St'","city":"b'Portland'","state":"b'OR'","zipcode":"b'97209'","__geocoding_meta_relevance":0.48,"__geocoding_meta_precision":"precise","__geocoding_meta_match_types":"{street}"}},{"type":"Feature","geometry":{"type":"Point","coordinates":[-118.2626,33.78]},"properties":{"cartodb_id":376,"name":"b'Glen Mills'","street":"b'475 Wilmington'","city":"b'Glen Mills'","state":"b'PA'","zipcode":"b'19342'","__geocoding_meta_relevance":0.33,"__geocoding_meta_precision":"precise","__geocoding_meta_match_types":"{}"}},{"type":"Feature","geometry":{"type":"Point","coordinates":[-83.732,32.4587]},"properties":{"cartodb_id":377,"name":"b'Wexford'","street":"b'10576 Perry Highway'","city":"b'Wexford'","state":"b'PA'","zipcode":"b'15090'","__geocoding_meta_relevance":0.2,"__geocoding_meta_precision":"precise","__geocoding_meta_match_types":"{point_of_interest}"}},{"type":"Feature","geometry":{"type":"Point","coordinates":[-75.264437,39.999638]},"properties":{"cartodb_id":378,"name":"b'Wynnewood'","street":"b'15 East Wynnewood Rd'","city":"b'Wynnewood'","state":"b'PA'","zipcode":"b'19096'","__geocoding_meta_relevance":0.65,"__geocoding_meta_precision":"precise","__geocoding_meta_match_types":"{street}"}},{"type":"Feature","geometry":{"type":"Point","coordinates":[-75.396777,40.044579]},"properties":{"cartodb_id":379,"name":"b'Devon'","street":"b'821 W. Lancaster Ave'","city":"b'Wayne'","state":"b'PA'","zipcode":"b'19087'","__geocoding_meta_relevance":0.64,"__geocoding_meta_precision":"precise","__geocoding_meta_match_types":"{street}"}},{"type":"Feature","geometry":{"type":"Point","coordinates":[-75.565538,40.57061]},"properties":{"cartodb_id":380,"name":"b'Allentown'","street":"b'750 N. Krocks Road'","city":"b'Allentown'","state":"b'PA'","zipcode":"b'18106'","__geocoding_meta_relevance":0.65,"__geocoding_meta_precision":"precise","__geocoding_meta_match_types":"{street}"}},{"type":"Feature","geometry":{"type":"Point","coordinates":[-79.953208,40.451915]},"properties":{"cartodb_id":381,"name":"b'Pittsburgh'","street":"b'5880 Centre Ave.'","city":"b'Pittsburgh'","state":"b'PA'","zipcode":"b'15206'","__geocoding_meta_relevance":0.65,"__geocoding_meta_precision":"precise","__geocoding_meta_match_types":"{street}"}},{"type":"Feature","geometry":{"type":"Point","coordinates":[-75.637468,40.050665]},"properties":{"cartodb_id":382,"name":"b'Exton'","street":"b'175 N. Pottstown Pike'","city":"b'Exton'","state":"b'PA'","zipcode":"b'19341'","__geocoding_meta_relevance":0.64,"__geocoding_meta_precision":"precise","__geocoding_meta_match_types":"{street}"}},{"type":"Feature","geometry":{"type":"Point","coordinates":[-83.732,32.4587]},"properties":{"cartodb_id":383,"name":"b'Wexford'","street":"b'10576 Perry Highway'","city":"b'Wexford'","state":"b'PA'","zipcode":"b'15090'","__geocoding_meta_relevance":0.2,"__geocoding_meta_precision":"precise","__geocoding_meta_match_types":"{point_of_interest}"}},{"type":"Feature","geometry":{"type":"Point","coordinates":[-75.117278,40.107392]},"properties":{"cartodb_id":384,"name":"b'Jenkintown'","street":"b'1575 The Fairway'","city":"b'Jenkintown'","state":"b'PA'","zipcode":"b'19046'","__geocoding_meta_relevance":0.65,"__geocoding_meta_precision":"precise","__geocoding_meta_match_types":"{street}"}},{"type":"Feature","geometry":{"type":"Point","coordinates":[-76.339038,40.113284]},"properties":{"cartodb_id":385,"name":"b'Lancaster'","street":"b'1563 Fruitville Pike'","city":"b'Lancaster'","state":"b'PA'","zipcode":"b'17601'","__geocoding_meta_relevance":0.33,"__geocoding_meta_precision":"precise","__geocoding_meta_match_types":"{street}"}},{"type":"Feature","geometry":{"type":"Point","coordinates":[11.467125,43.167279]},"properties":{"cartodb_id":386,"name":"b'South Hills'","street":"b'111 Siena Drive'","city":"b'Upper St. Clair'","state":"b'PA'","zipcode":"b'15241'","__geocoding_meta_relevance":0.2,"__geocoding_meta_precision":"precise","__geocoding_meta_match_types":"{state}"}},{"type":"Feature","geometry":{"type":"Point","coordinates":[-75.17891,39.967142]},"properties":{"cartodb_id":387,"name":"b'Philly Center City'","street":"b'2101 Pennsylvania Avenue'","city":"b'Philadelphia'","state":"b'PA'","zipcode":"b'19130'","__geocoding_meta_relevance":0.65,"__geocoding_meta_precision":"precise","__geocoding_meta_match_types":"{street}"}},{"type":"Feature","geometry":{"type":"Point","coordinates":[-118.2626,33.78]},"properties":{"cartodb_id":388,"name":"b'Glen Mills'","street":"b'475 Wilmington'","city":"b'Glen Mills'","state":"b'PA'","zipcode":"b'19342'","__geocoding_meta_relevance":0.33,"__geocoding_meta_precision":"precise","__geocoding_meta_match_types":"{}"}},{"type":"Feature","geometry":{"type":"Point","coordinates":[-115.6207,47.385708]},"properties":{"cartodb_id":389,"name":"b'Spring House'","street":"b'1111 North Bethlehem Pike'","city":"b'Spring House'","state":"b'PA'","zipcode":"b'19477'","__geocoding_meta_relevance":0.2,"__geocoding_meta_precision":"precise","__geocoding_meta_match_types":"{street}"}},{"type":"Feature","geometry":{"type":"Point","coordinates":[-71.267977,41.684559]},"properties":{"cartodb_id":390,"name":"b'Providence'","street":"b'261 Waterman St'","city":"b'Providence'","state":"b'RI'","zipcode":"b'02906'","__geocoding_meta_relevance":0.5,"__geocoding_meta_precision":"precise","__geocoding_meta_match_types":"{street}"}},{"type":"Feature","geometry":{"type":"Point","coordinates":[-111.83499,41.760716]},"properties":{"cartodb_id":391,"name":"b'University'","street":"b'601 N Main St'","city":"b'Providence'","state":"b'RI'","zipcode":"b'02904'","__geocoding_meta_relevance":0.5,"__geocoding_meta_precision":"precise","__geocoding_meta_match_types":"{street}"}},{"type":"Feature","geometry":{"type":"Point","coordinates":[-71.455077,41.754856]},"properties":{"cartodb_id":392,"name":"b'Garden City Center'","street":"b'151 Sockanosset Cross Road'","city":"b'Cranston'","state":"b'RI'","zipcode":"b'02920'","__geocoding_meta_relevance":0.64,"__geocoding_meta_precision":"precise","__geocoding_meta_match_types":"{street}"}},{"type":"Feature","geometry":{"type":"Point","coordinates":[-79.89002,32.800733]},"properties":{"cartodb_id":393,"name":"b'Charleston'","street":"b'923 Houston Northcutt Blvd'","city":"b'Mount Pleasant'","state":"b'SC'","zipcode":"b'29464'","__geocoding_meta_relevance":0.65,"__geocoding_meta_precision":"precise","__geocoding_meta_match_types":"{street}"}},{"type":"Feature","geometry":{"type":"Point","coordinates":[-92.393854,40.738567]},"properties":{"cartodb_id":394,"name":"b'West Ashley'","street":"b'1125 Savannah Highway'","city":"b'Charleston'","state":"b'SC'","zipcode":"b'29407'","__geocoding_meta_relevance":0.49,"__geocoding_meta_precision":"precise","__geocoding_meta_match_types":"{street}"}},{"type":"Feature","geometry":{"type":"Point","coordinates":[-107.98779,38.68759]},"properties":{"cartodb_id":395,"name":"b'Hilton Head Island'","street":"b'50 Shelter Cove Lane'","city":"b'Hilton Head Island'","state":"b'SC'","zipcode":"b'29928'","__geocoding_meta_relevance":0.2,"__geocoding_meta_precision":"precise","__geocoding_meta_match_types":"{street}"}},{"type":"Feature","geometry":{"type":"Point","coordinates":[15.241953,46.58695]},"properties":{"cartodb_id":396,"name":"b'Columbia'","street":"b'702 Cross Hill Rd + Fort Jackson Blvd'","city":"b'Columbia'","state":"b'SC'","zipcode":"b'29205-2084'","__geocoding_meta_relevance":0.25,"__geocoding_meta_precision":"precise","__geocoding_meta_match_types":"{state,point_of_interest}"}},{"type":"Feature","geometry":{"type":"Point","coordinates":[-69.555042,45.459812]},"properties":{"cartodb_id":397,"name":"b'Greenville'","street":"b'1140 Woodruff Road'","city":"b'Greenville'","state":"b'SC'","zipcode":"b'29607'","__geocoding_meta_relevance":0.49,"__geocoding_meta_precision":"precise","__geocoding_meta_match_types":"{street}"}},{"type":"Feature","geometry":{"type":"Point","coordinates":[-74.851192,40.513324]},"properties":{"cartodb_id":398,"name":"b'Germantown'","street":"b'7825 U.S. Highway 72'","city":"b'Germantown'","state":"b'TN'","zipcode":"b'38138-3906'","__geocoding_meta_relevance":0.49,"__geocoding_meta_precision":"precise","__geocoding_meta_match_types":"{street}"}},{"type":"Feature","geometry":{"type":"Point","coordinates":[-86.800898,36.141266]},"properties":{"cartodb_id":399,"name":"b'Green Hills'","street":"b'4021 Hillsboro Pike'","city":"b'Nashville'","state":"b'TN'","zipcode":"b'37215'","__geocoding_meta_relevance":0.65,"__geocoding_meta_precision":"precise","__geocoding_meta_match_types":"{street}"}},{"type":"Feature","geometry":{"type":"Point","coordinates":[-83.990105,35.949235]},"properties":{"cartodb_id":400,"name":"b'Knoxville'","street":"b'6730 Papermill Drive'","city":"b'Knoxville'","state":"b'TN'","zipcode":"b'37919'","__geocoding_meta_relevance":0.65,"__geocoding_meta_precision":"precise","__geocoding_meta_match_types":"{street}"}},{"type":"Feature","geometry":{"type":"Point","coordinates":[-85.319387,35.060766]},"properties":{"cartodb_id":401,"name":"b'Chattanooga'","street":"b'301 Manufacturers Rd'","city":"b'Chattanooga'","state":"b'TN'","zipcode":"b'37405'","__geocoding_meta_relevance":0.65,"__geocoding_meta_precision":"precise","__geocoding_meta_match_types":"{street}"}},{"type":"Feature","geometry":{"type":"Point","coordinates":[-89.993644,35.145775]},"properties":{"cartodb_id":402,"name":"b'Poplar Avenue'","street":"b'5014 Poplar Avenue'","city":"b'Memphis'","state":"b'TN'","zipcode":"b'38117'","__geocoding_meta_relevance":0.64,"__geocoding_meta_precision":"precise","__geocoding_meta_match_types":"{street}"}},{"type":"Feature","geometry":{"type":"Point","coordinates":[-86.826213,35.937287]},"properties":{"cartodb_id":403,"name":"b'McEwen'","street":"b'1566 West McEwen Drive'","city":"b'Franklin'","state":"b'TN'","zipcode":"b'37067'","__geocoding_meta_relevance":0.64,"__geocoding_meta_precision":"precise","__geocoding_meta_match_types":"{street}"}},{"type":"Feature","geometry":{"type":"Point","coordinates":[-97.680762,30.328647]},"properties":{"cartodb_id":404,"name":"b'Gateway'","street":"b'9607 Research Blvd.'","city":"b'Austin'","state":"b'TX'","zipcode":"b'78759'","__geocoding_meta_relevance":0.64,"__geocoding_meta_precision":"precise","__geocoding_meta_match_types":"{street}"}},{"type":"Feature","geometry":{"type":"Point","coordinates":[-97.080644,32.763761]},"properties":{"cartodb_id":405,"name":"b'Arlington TX'","street":"b'801 East Lamar Blvd.'","city":"b'Arlington'","state":"b'TX'","zipcode":"b'76011'","__geocoding_meta_relevance":0.65,"__geocoding_meta_precision":"precise","__geocoding_meta_match_types":"{street}"}},{"type":"Feature","geometry":{"type":"Point","coordinates":[-96.791722,33.019094]},"properties":{"cartodb_id":406,"name":"b'Plano'","street":"b'2201 Preston Road'","city":"b'Plano'","state":"b'TX'","zipcode":"b'75093'","__geocoding_meta_relevance":0.64,"__geocoding_meta_precision":"precise","__geocoding_meta_match_types":"{street}"}},{"type":"Feature","geometry":{"type":"Point","coordinates":[-95.41814,29.711328]},"properties":{"cartodb_id":407,"name":"b'Kirby'","street":"b'2955 Kirby Dr'","city":"b'Houston'","state":"b'TX'","zipcode":"b'77098'","__geocoding_meta_relevance":0.64,"__geocoding_meta_precision":"precise","__geocoding_meta_match_types":"{street}"}},{"type":"Feature","geometry":{"type":"Point","coordinates":[-95.636407,29.592774]},"properties":{"cartodb_id":408,"name":"b'Sugar Land'","street":"b'15900 Southwest Freeway'","city":"b'Sugar Land'","state":"b'TX'","zipcode":"b'77478'","__geocoding_meta_relevance":0.65,"__geocoding_meta_precision":"precise","__geocoding_meta_match_types":"{street}"}},{"type":"Feature","geometry":{"type":"Point","coordinates":[-98.510708,29.645977]},"properties":{"cartodb_id":409,"name":"b'Vineyard'","street":"b'18403 Blanco Road'","city":"b'San Antonio'","state":"b'TX'","zipcode":"b'78258'","__geocoding_meta_relevance":0.65,"__geocoding_meta_precision":"precise","__geocoding_meta_match_types":"{street}"}},{"type":"Feature","geometry":{"type":"Point","coordinates":[-71.354597,42.303328]},"properties":{"cartodb_id":410,"name":"b'Fort Worth'","street":"b'3720 Vision Drive'","city":"b'Fort Worth'","state":"b'TX'","zipcode":"b'76109'","__geocoding_meta_relevance":0.33,"__geocoding_meta_precision":"precise","__geocoding_meta_match_types":"{street}"}},{"type":"Feature","geometry":{"type":"Point","coordinates":[-79.512727,44.105123]},"properties":{"cartodb_id":411,"name":"b'365 Cedar Park'","street":"b'5001 183 Toll Road'","city":"b'Cedar Park'","state":"b'TX'","zipcode":"b'78613'","__geocoding_meta_relevance":0.33,"__geocoding_meta_precision":"interpolated","__geocoding_meta_match_types":"{street}"}},{"type":"Feature","geometry":{"type":"Point","coordinates":[-95.397606,29.756872]},"properties":{"cartodb_id":412,"name":"b'Montrose'","street":"b'701 Waugh Drive'","city":"b'Houston'","state":"b'TX'","zipcode":"b'77019'","__geocoding_meta_relevance":0.64,"__geocoding_meta_precision":"precise","__geocoding_meta_match_types":"{street}"}},{"type":"Feature","geometry":{"type":"Point","coordinates":[-96.752615,32.802626]},"properties":{"cartodb_id":413,"name":"b'Lakewood'","street":"b'2118 Abrams Road'","city":"b'Dallas'","state":"b'TX'","zipcode":"b'75214'","__geocoding_meta_relevance":0.64,"__geocoding_meta_precision":"precise","__geocoding_meta_match_types":"{street}"}},{"type":"Feature","geometry":{"type":"Point","coordinates":[-95.470304,30.171934]},"properties":{"cartodb_id":414,"name":"b'The Woodlands'","street":"b'1925 Hughes Landing Blvd.'","city":"b'The Woodlands'","state":"b'TX'","zipcode":"b'77380'","__geocoding_meta_relevance":0.65,"__geocoding_meta_precision":"precise","__geocoding_meta_match_types":"{street}"}},{"type":"Feature","geometry":{"type":"Point","coordinates":[-97.862094,30.259908]},"properties":{"cartodb_id":416,"name":"b'Arbor Trails'","street":"b'4301 W. William Cannon'","city":"b'Austin'","state":"b'TX'","zipcode":"b'78749'","__geocoding_meta_relevance":0.64,"__geocoding_meta_precision":"precise","__geocoding_meta_match_types":"{street}"}},{"type":"Feature","geometry":{"type":"Point","coordinates":[13.999791,46.373914]},"properties":{"cartodb_id":417,"name":"b'Lamar'","street":"b'525 N Lamar Blvd.'","city":"b'Austin'","state":"b'TX'","zipcode":"b'78703'","__geocoding_meta_relevance":0.18,"__geocoding_meta_precision":"precise","__geocoding_meta_match_types":"{state}"}},{"type":"Feature","geometry":{"type":"Point","coordinates":[-96.798168,32.782058]},"properties":{"cartodb_id":418,"name":"b'Uptown Dallas'","street":"b'2510 McKinney Ave'","city":"b'Dallas'","state":"b'TX'","zipcode":"b'75201'","__geocoding_meta_relevance":0.64,"__geocoding_meta_precision":"precise","__geocoding_meta_match_types":"{street}"}},{"type":"Feature","geometry":{"type":"Point","coordinates":[-91.35577,42.084778]},"properties":{"cartodb_id":419,"name":"b'Fairview'","street":"b'Fairview Town Center'","city":"b'Fairview'","state":"b'TX'","zipcode":"b'75069'","__geocoding_meta_relevance":0.42,"__geocoding_meta_precision":"precise","__geocoding_meta_match_types":"{street}"}},{"type":"Feature","geometry":{"type":"Point","coordinates":[-96.791722,33.019094]},"properties":{"cartodb_id":420,"name":"b'Plano'","street":"b'2201 Preston Road'","city":"b'Plano'","state":"b'TX'","zipcode":"b'75093'","__geocoding_meta_relevance":0.64,"__geocoding_meta_precision":"precise","__geocoding_meta_match_types":"{street}"}},{"type":"Feature","geometry":{"type":"Point","coordinates":[-96.771898,32.776965]},"properties":{"cartodb_id":422,"name":"b'Park Lane'","street":"b'8190 Park Lane, Suite 351'","city":"b'Dallas'","state":"b'TX'","zipcode":"b'75231'","__geocoding_meta_relevance":0.64,"__geocoding_meta_precision":"precise","__geocoding_meta_match_types":"{street}"}},{"type":"Feature","geometry":{"type":"Point","coordinates":[-96.752615,32.802626]},"properties":{"cartodb_id":423,"name":"b'Lakewood'","street":"b'2118 Abrams Road'","city":"b'Dallas'","state":"b'TX'","zipcode":"b'75214'","__geocoding_meta_relevance":0.64,"__geocoding_meta_precision":"precise","__geocoding_meta_match_types":"{street}"}},{"type":"Feature","geometry":{"type":"Point","coordinates":[-97.940532,30.308849]},"properties":{"cartodb_id":424,"name":"b'Bee Cave'","street":"b'12601 Hill Country Blvd'","city":"b'Bee Cave'","state":"b'TX'","zipcode":"b'78738'","__geocoding_meta_relevance":0.64,"__geocoding_meta_precision":"precise","__geocoding_meta_match_types":"{street}"}},{"type":"Feature","geometry":{"type":"Point","coordinates":[-75.99,41.351858]},"properties":{"cartodb_id":425,"name":"b'Forest'","street":"b'11700 Preston Rd'","city":"b'Dallas'","state":"b'TX'","zipcode":"b'75230'","__geocoding_meta_relevance":0.64,"__geocoding_meta_precision":"precise","__geocoding_meta_match_types":"{street}"}},{"type":"Feature","geometry":{"type":"Point","coordinates":[-95.419564,29.705574]},"properties":{"cartodb_id":426,"name":"b'Bellaire'","street":"b'4004 Bellaire Blvd'","city":"b'Houston'","state":"b'TX'","zipcode":"b'77025'","__geocoding_meta_relevance":0.64,"__geocoding_meta_precision":"precise","__geocoding_meta_match_types":"{street}"}},{"type":"Feature","geometry":{"type":"Point","coordinates":[-96.967121,32.952454]},"properties":{"cartodb_id":427,"name":"b'Addison'","street":"b'5100 Belt Line Road, Suite 1012'","city":"b'Addison'","state":"b'TX'","zipcode":"b'75254'","__geocoding_meta_relevance":0.33,"__geocoding_meta_precision":"precise","__geocoding_meta_match_types":"{street}"}},{"type":"Feature","geometry":{"type":"Point","coordinates":[-71.354597,42.303328]},"properties":{"cartodb_id":428,"name":"b'Fort Worth'","street":"b'3720 Vision Drive'","city":"b'Fort Worth'","state":"b'TX'","zipcode":"b'76109'","__geocoding_meta_relevance":0.33,"__geocoding_meta_precision":"precise","__geocoding_meta_match_types":"{street}"}},{"type":"Feature","geometry":{"type":"Point","coordinates":[-96.949732,32.939447]},"properties":{"cartodb_id":429,"name":"b'Las Colinas'","street":"b'6741 N MacArthur Blvd'","city":"b'Irving'","state":"b'TX'","zipcode":"b'75039'","__geocoding_meta_relevance":0.64,"__geocoding_meta_precision":"precise","__geocoding_meta_match_types":"{street}"}},{"type":"Feature","geometry":{"type":"Point","coordinates":[-91.35577,42.084778]},"properties":{"cartodb_id":430,"name":"b'Fairview'","street":"b'Fairview Town Center'","city":"b'Fairview'","state":"b'TX'","zipcode":"b'75069'","__geocoding_meta_relevance":0.42,"__geocoding_meta_precision":"precise","__geocoding_meta_match_types":"{street}"}},{"type":"Feature","geometry":{"type":"Point","coordinates":[-97.080644,32.763761]},"properties":{"cartodb_id":431,"name":"b'Arlington TX'","street":"b'801 East Lamar Blvd.'","city":"b'Arlington'","state":"b'TX'","zipcode":"b'76011'","__geocoding_meta_relevance":0.65,"__geocoding_meta_precision":"precise","__geocoding_meta_match_types":"{street}"}},{"type":"Feature","geometry":{"type":"Point","coordinates":[-95.41814,29.711328]},"properties":{"cartodb_id":432,"name":"b'Kirby'","street":"b'2955 Kirby Dr'","city":"b'Houston'","state":"b'TX'","zipcode":"b'77098'","__geocoding_meta_relevance":0.64,"__geocoding_meta_precision":"precise","__geocoding_meta_match_types":"{street}"}},{"type":"Feature","geometry":{"type":"Point","coordinates":[-98.510708,29.645977]},"properties":{"cartodb_id":433,"name":"b'Vineyard'","street":"b'18403 Blanco Road'","city":"b'San Antonio'","state":"b'TX'","zipcode":"b'78258'","__geocoding_meta_relevance":0.65,"__geocoding_meta_precision":"precise","__geocoding_meta_match_types":"{street}"}},{"type":"Feature","geometry":{"type":"Point","coordinates":[-79.512727,44.105123]},"properties":{"cartodb_id":434,"name":"b'365 Cedar Park'","street":"b'5001 183 Toll Road'","city":"b'Cedar Park'","state":"b'TX'","zipcode":"b'78613'","__geocoding_meta_relevance":0.33,"__geocoding_meta_precision":"interpolated","__geocoding_meta_match_types":"{street}"}},{"type":"Feature","geometry":{"type":"Point","coordinates":[-95.636407,29.592774]},"properties":{"cartodb_id":435,"name":"b'Sugar Land'","street":"b'15900 Southwest Freeway'","city":"b'Sugar Land'","state":"b'TX'","zipcode":"b'77478'","__geocoding_meta_relevance":0.65,"__geocoding_meta_precision":"precise","__geocoding_meta_match_types":"{street}"}},{"type":"Feature","geometry":{"type":"Point","coordinates":[-95.397606,29.756872]},"properties":{"cartodb_id":436,"name":"b'Montrose'","street":"b'701 Waugh Drive'","city":"b'Houston'","state":"b'TX'","zipcode":"b'77019'","__geocoding_meta_relevance":0.64,"__geocoding_meta_precision":"precise","__geocoding_meta_match_types":"{street}"}},{"type":"Feature","geometry":{"type":"Point","coordinates":[-97.680762,30.328647]},"properties":{"cartodb_id":437,"name":"b'Gateway'","street":"b'9607 Research Blvd.'","city":"b'Austin'","state":"b'TX'","zipcode":"b'78759'","__geocoding_meta_relevance":0.64,"__geocoding_meta_precision":"precise","__geocoding_meta_match_types":"{street}"}},{"type":"Feature","geometry":{"type":"Point","coordinates":[-111.81757,40.723643]},"properties":{"cartodb_id":438,"name":"b'Sugar House'","street":"b'1131 E. Wilmington Ave.'","city":"b'Salt Lake City'","state":"b'UT'","zipcode":"b'84106'","__geocoding_meta_relevance":0.49,"__geocoding_meta_precision":"precise","__geocoding_meta_match_types":"{street}"}},{"type":"Feature","geometry":{"type":"Point","coordinates":[-111.54931,40.726021]},"properties":{"cartodb_id":439,"name":"b'Canyon Corners'","street":"b'6598 N Landmark Drive'","city":"b'Park City'","state":"b'UT'","zipcode":"b'84098'","__geocoding_meta_relevance":0.48,"__geocoding_meta_precision":"precise","__geocoding_meta_match_types":"{street}"}},{"type":"Feature","geometry":{"type":"Point","coordinates":[-79.8952,40.861]},"properties":{"cartodb_id":440,"name":"b'Cottonwood Heights'","street":"b'6930 S. Highland Drive'","city":"b'Cottonwood Heights'","state":"b'UT'","zipcode":"b'84121'","__geocoding_meta_relevance":0.25,"__geocoding_meta_precision":"precise","__geocoding_meta_match_types":"{point_of_interest}"}},{"type":"Feature","geometry":{"type":"Point","coordinates":[-111.87076,40.667006]},"properties":{"cartodb_id":441,"name":"b'Trolley Square'","street":"b'544 South 700 East'","city":"b'Salt Lake City'","state":"b'UT'","zipcode":"b'84102'","__geocoding_meta_relevance":0.49,"__geocoding_meta_precision":"precise","__geocoding_meta_match_types":"{street}"}},{"type":"Feature","geometry":{"type":"Point","coordinates":[-74.76842,45.300085]},"properties":{"cartodb_id":442,"name":"b'Old Town'","street":"b'1700 Duke St'","city":"b'Alexandria'","state":"b'VA'","zipcode":"b'22314'","__geocoding_meta_relevance":0.65,"__geocoding_meta_precision":"precise","__geocoding_meta_match_types":"{street}"}},{"type":"Feature","geometry":{"type":"Point","coordinates":[-77.349241,38.952256]},"properties":{"cartodb_id":443,"name":"b'Reston'","street":"b'11660 Plaza America Dr'","city":"b'Reston'","state":"b'VA'","zipcode":"b'20190'","__geocoding_meta_relevance":0.64,"__geocoding_meta_precision":"precise","__geocoding_meta_match_types":"{street}"}},{"type":"Feature","geometry":{"type":"Point","coordinates":[-76.538913,37.129468]},"properties":{"cartodb_id":444,"name":"b'Newport News'","street":"b'12090 Jefferson Ave.'","city":"b'Newport News'","state":"b'VA'","zipcode":"b'23606'","__geocoding_meta_relevance":0.65,"__geocoding_meta_precision":"precise","__geocoding_meta_match_types":"{street}"}},{"type":"Feature","geometry":{"type":"Point","coordinates":[-97.1071,32.7356]},"properties":{"cartodb_id":445,"name":"b'Arlington VA'","street":"b'2700 Wilson Blvd'","city":"b'Arlington'","state":"b'VA'","zipcode":"b'22201'","__geocoding_meta_relevance":0.24,"__geocoding_meta_precision":"precise","__geocoding_meta_match_types":"{point_of_interest}"}},{"type":"Feature","geometry":{"type":"Point","coordinates":[-77.241458,38.777609]},"properties":{"cartodb_id":446,"name":"b'Springfield'","street":"b'8402 Old Keene Mill Rd'","city":"b'Springfield'","state":"b'VA'","zipcode":"b'22152'","__geocoding_meta_relevance":0.65,"__geocoding_meta_precision":"precise","__geocoding_meta_match_types":"{street}"}},{"type":"Feature","geometry":{"type":"Point","coordinates":[-79.128075,34.593221]},"properties":{"cartodb_id":447,"name":"b'Short Pump'","street":"b'11173 West Broad Street'","city":"b'Glen Allen'","state":"b'VA'","zipcode":"b'23060'","__geocoding_meta_relevance":0.25,"__geocoding_meta_precision":"precise","__geocoding_meta_match_types":"{street}"}},{"type":"Feature","geometry":{"type":"Point","coordinates":[-95.750966,38.189846]},"properties":{"cartodb_id":448,"name":"b'Pentagon City'","street":"b'520 12th St. South, Suite 100'","city":"b'Arlington'","state":"b'VA'","zipcode":"b'22202'","__geocoding_meta_relevance":0.65,"__geocoding_meta_precision":"precise","__geocoding_meta_match_types":"{street}"}},{"type":"Feature","geometry":{"type":"Point","coordinates":[-79.128075,34.593221]},"properties":{"cartodb_id":449,"name":"b'Virginia Beach'","street":"b'1800 Laskin Road'","city":"b'Virginia Beach'","state":"b'VA'","zipcode":"b'23454'","__geocoding_meta_relevance":0.2,"__geocoding_meta_precision":"precise","__geocoding_meta_match_types":"{street}"}},{"type":"Feature","geometry":{"type":"Point","coordinates":[-77.485217,39.067049]},"properties":{"cartodb_id":450,"name":"b'Ashburn'","street":"b'19800 Belmont Chase Drive'","city":"b'Ashburn'","state":"b'VA'","zipcode":"b'20147'","__geocoding_meta_relevance":0.64,"__geocoding_meta_precision":"precise","__geocoding_meta_match_types":"{street}"}},{"type":"Feature","geometry":{"type":"Point","coordinates":[-77.135894,38.854623]},"properties":{"cartodb_id":451,"name":"b'Tysons'","street":"b'7511 Leesburg Pike'","city":"b'Falls Church'","state":"b'VA'","zipcode":"b'22043'","__geocoding_meta_relevance":0.65,"__geocoding_meta_precision":"precise","__geocoding_meta_match_types":"{street}"}},{"type":"Feature","geometry":{"type":"Point","coordinates":[-78.497511,38.069229]},"properties":{"cartodb_id":452,"name":"b'Charlottesville'","street":"b'1797 Hydraulic Road'","city":"b'Charlottesville'","state":"b'VA'","zipcode":"b'22901'","__geocoding_meta_relevance":0.65,"__geocoding_meta_precision":"precise","__geocoding_meta_match_types":"{street}"}},{"type":"Feature","geometry":{"type":"Point","coordinates":[-77.377244,38.858564]},"properties":{"cartodb_id":453,"name":"b'Fair Lakes'","street":"b'4501 Market Commons Dr'","city":"b'Fairfax'","state":"b'VA'","zipcode":"b'22033'","__geocoding_meta_relevance":0.64,"__geocoding_meta_precision":"precise","__geocoding_meta_match_types":"{street}"}},{"type":"Feature","geometry":{"type":"Point","coordinates":[-77.255353,38.908735]},"properties":{"cartodb_id":454,"name":"b'Vienna'","street":"b'143 Maple Ave East'","city":"b'Vienna'","state":"b'VA'","zipcode":"b'22180'","__geocoding_meta_relevance":0.64,"__geocoding_meta_precision":"precise","__geocoding_meta_match_types":"{street}"}},{"type":"Feature","geometry":{"type":"Point","coordinates":[-122.18113,47.636674]},"properties":{"cartodb_id":455,"name":"b'Bellevue'","street":"b'888 116th Ave NE'","city":"b'Bellevue'","state":"b'WA'","zipcode":"b'98004'","__geocoding_meta_relevance":0.64,"__geocoding_meta_precision":"precise","__geocoding_meta_match_types":"{street}"}},{"type":"Feature","geometry":{"type":"Point","coordinates":[-122.10126,47.666128]},"properties":{"cartodb_id":456,"name":"b'Redmond'","street":"b'17991 NE Redmond Way'","city":"b'Redmond'","state":"b'WA'","zipcode":"b'98052'","__geocoding_meta_relevance":0.64,"__geocoding_meta_precision":"precise","__geocoding_meta_match_types":"{street}"}},{"type":"Feature","geometry":{"type":"Point","coordinates":[-122.25521,47.819965]},"properties":{"cartodb_id":457,"name":"b'Lynnwood'","street":"b'2800 196th St. SW'","city":"b'Lynnwood'","state":"b'WA'","zipcode":"b'98036'","__geocoding_meta_relevance":0.64,"__geocoding_meta_precision":"precise","__geocoding_meta_match_types":"{street}"}},{"type":"Feature","geometry":{"type":"Point","coordinates":[-122.53643,47.2133]},"properties":{"cartodb_id":458,"name":"b'Chambers Bay'","street":"b'3515 Bridgeport Way West'","city":"b'University Place'","state":"b'WA'","zipcode":"b'98466'","__geocoding_meta_relevance":0.64,"__geocoding_meta_precision":"precise","__geocoding_meta_match_types":"{street}"}},{"type":"Feature","geometry":{"type":"Point","coordinates":[-122.18081,47.712004]},"properties":{"cartodb_id":459,"name":"b'Kirkland'","street":"b'12501 120th Ave NE'","city":"b'Kirkland'","state":"b'WA'","zipcode":"b'98034'","__geocoding_meta_relevance":0.64,"__geocoding_meta_precision":"precise","__geocoding_meta_match_types":"{street}"}},{"type":"Feature","geometry":{"type":"Point","coordinates":[-122.5072,45.599194]},"properties":{"cartodb_id":460,"name":"b'Mill Plain'","street":"b'815 Southeast 160th Avenue'","city":"b'Vancouver'","state":"b'WA'","zipcode":"b'98683'","__geocoding_meta_relevance":0.65,"__geocoding_meta_precision":"precise","__geocoding_meta_match_types":"{street}"}},{"type":"Feature","geometry":{"type":"Point","coordinates":[-122.34155,47.632649]},"properties":{"cartodb_id":461,"name":"b'Westlake'","street":"b'2210 Westlake Ave'","city":"b'Seattle'","state":"b'WA'","zipcode":"b'98121'","__geocoding_meta_relevance":0.64,"__geocoding_meta_precision":"precise","__geocoding_meta_match_types":"{street}"}}]}